[{"lat":48.30989075,"long":18.08587646,"kod_obce":"500011","name":"Nitra"},{"lat":48.24373245,"long":18.30820084,"kod_obce":"500933","name":"Vráble"},{"lat":48.3832283,"long":18.39763451,"kod_obce":"500968","name":"Zlaté Moravce"},{"lat":47.76250076,"long":18.13059616,"kod_obce":"501026","name":"Komárno"},{"lat":47.87999725,"long":18.19616127,"kod_obce":"501140","name":"Hurbanovo"},{"lat":47.92416,"long":17.986763,"kod_obce":"501204","name":"Kolárovo"},{"lat":47.99238968,"long":17.61705399,"kod_obce":"501433","name":"Dunajská Streda"},{"lat":47.85654831,"long":17.76942444,"kod_obce":"501522","name":"Veľký Meder"},{"lat":48.02944946,"long":17.31018257,"kod_obce":"501905","name":"Šamorín"},{"lat":48.2192421,"long":18.60650063,"kod_obce":"502031","name":"Levice"},{"lat":48.06977463,"long":18.9483757,"kod_obce":"502782","name":"Šahy"},{"lat":48.28907013,"long":18.53137207,"kod_obce":"502863","name":"Tlmače"},{"lat":48.04709244,"long":18.65456581,"kod_obce":"502987","name":"Želiezovce"},{"lat":47.98606873,"long":18.16406441,"kod_obce":"503011","name":"Nové Zámky"},{"lat":47.79871368,"long":18.72041893,"kod_obce":"503584","name":"Štúrovo"},{"lat":48.08840561,"long":18.17925835,"kod_obce":"503592","name":"Šurany"},{"lat":48.18954086,"long":17.72666359,"kod_obce":"503665","name":"Galanta"},{"lat":48.28616714,"long":17.73376656,"kod_obce":"504009","name":"Sereď"},{"lat":48.20457458,"long":17.64243126,"kod_obce":"504017","name":"Sládkovičovo"},{"lat":48.15143967,"long":17.87572098,"kod_obce":"504025","name":"Šaľa"},{"lat":48.67652512,"long":17.36395836,"kod_obce":"504203","name":"Senica"},{"lat":48.66510391,"long":17.54018974,"kod_obce":"504262","name":"Brezová pod Bradlom"},{"lat":48.71649551,"long":17.12155533,"kod_obce":"504351","name":"Gbely"},{"lat":48.80819702,"long":17.16244507,"kod_obce":"504378","name":"Holíč"},{"lat":48.75047302,"long":17.56516457,"kod_obce":"504581","name":"Myjava"},{"lat":48.84605789,"long":17.22786331,"kod_obce":"504815","name":"Skalica"},{"lat":48.63697433,"long":17.15336418,"kod_obce":"504891","name":"Šaštín - Stráže"},{"lat":48.55844498,"long":18.17169762,"kod_obce":"504998","name":"Topoľčany"},{"lat":48.62643051,"long":18.37162209,"kod_obce":"505315","name":"Partizánske"},{"lat":48.8939476,"long":18.03784943,"kod_obce":"505820","name":"Trenčín"},{"lat":48.96324921,"long":18.11626053,"kod_obce":"506281","name":"Nemšová"},{"lat":48.75746536,"long":17.83119202,"kod_obce":"506338","name":"Nové Mesto nad Váhom"},{"lat":48.77915955,"long":17.69347763,"kod_obce":"506524","name":"Stará Turá"},{"lat":48.90974808,"long":18.1678257,"kod_obce":"506613","name":"Trenčianske Teplice"},{"lat":48.3735199,"long":17.59511185,"kod_obce":"506745","name":"Trnava"},{"lat":48.42484665,"long":17.80400467,"kod_obce":"507032","name":"Hlohovec"},{"lat":48.44701767,"long":17.76420975,"kod_obce":"507253","name":"Leopoldov"},{"lat":48.58920288,"long":17.83410454,"kod_obce":"507440","name":"Piešťany"},{"lat":48.62134171,"long":17.72369385,"kod_obce":"507750","name":"Vrbové"},{"lat":48.25433731,"long":17.21190834,"kod_obce":"507989","name":"Svätý Jur"},{"lat":48.43634033,"long":17.01826477,"kod_obce":"508063","name":"Malacky"},{"lat":48.33433914,"long":17.30694962,"kod_obce":"508101","name":"Modra"},{"lat":48.28873062,"long":17.26781464,"kod_obce":"508179","name":"Pezinok"},{"lat":48.22090149,"long":17.39869499,"kod_obce":"508217","name":"Senec"},{"lat":48.27492142,"long":17.03188705,"kod_obce":"508233","name":"Stupava"},{"lat":48.73627853,"long":19.14619255,"kod_obce":"508438","name":"Banská Bystrica"},{"lat":48.80635452,"long":19.64388847,"kod_obce":"508497","name":"Brezno"},{"lat":49.43793488,"long":18.78970146,"kod_obce":"509132","name":"Čadca"},{"lat":49.38690186,"long":18.83473778,"kod_obce":"509248","name":"Krásno nad Kysucou"},{"lat":49.30194473,"long":18.78662872,"kod_obce":"509256","name":"Kysucké Nové Mesto"},{"lat":49.40513229,"long":18.62685204,"kod_obce":"509507","name":"Turzovka"},{"lat":49.20902252,"long":19.29536819,"kod_obce":"509540","name":"Dolný Kubín"},{"lat":49.40637207,"long":19.48388481,"kod_obce":"509868","name":"Námestovo"},{"lat":49.36138153,"long":19.61394691,"kod_obce":"510106","name":"Trstená"},{"lat":49.33359146,"long":19.55486107,"kod_obce":"510114","name":"Tvrdošín"},{"lat":49.08298111,"long":19.61223412,"kod_obce":"510262","name":"Liptovský Mikuláš"},{"lat":49.03651047,"long":19.72021484,"kod_obce":"510726","name":"Liptovský Hrádok"},{"lat":49.08187485,"long":19.30773544,"kod_obce":"510998","name":"Ružomberok"},{"lat":48.32986069,"long":19.66373634,"kod_obce":"511218","name":"Lučenec"},{"lat":48.27064896,"long":19.82225418,"kod_obce":"511391","name":"Fiľakovo"},{"lat":48.43233871,"long":19.7932415,"kod_obce":"511765","name":"Poltár"},{"lat":49.06283951,"long":18.92184067,"kod_obce":"512036","name":"Martin"},{"lat":48.86362457,"long":18.86334038,"kod_obce":"512729","name":"Turčianske Teplice"},{"lat":49.11733246,"long":18.44836807,"kod_obce":"512842","name":"Považská Bystrica"},{"lat":48.95993805,"long":18.17432213,"kod_obce":"513016","name":"Dubnica nad Váhom"},{"lat":48.9985733,"long":18.23488617,"kod_obce":"513156","name":"Ilava"},{"lat":48.93659592,"long":18.14542007,"kod_obce":"513440","name":"Nová Dubnica"},{"lat":49.12493515,"long":18.33016968,"kod_obce":"513610","name":"Púchov"},{"lat":48.77292633,"long":18.62215233,"kod_obce":"513881","name":"Prievidza"},{"lat":48.77875519,"long":18.58295441,"kod_obce":"513903","name":"Bojnice"},{"lat":48.72739029,"long":18.76013756,"kod_obce":"513997","name":"Handlová"},{"lat":48.71793747,"long":18.54076385,"kod_obce":"514268","name":"Nováky"},{"lat":48.38334274,"long":20.01835823,"kod_obce":"514462","name":"Rimavská Sobota"},{"lat":48.57919693,"long":19.95368195,"kod_obce":"514829","name":"Hnúšťa"},{"lat":48.42250824,"long":20.32255936,"kod_obce":"515612","name":"Tornaľa"},{"lat":48.68057251,"long":19.94289017,"kod_obce":"515680","name":"Tisovec"},{"lat":48.20735931,"long":19.3477726,"kod_obce":"515850","name":"Veľký Krtíš"},{"lat":48.24047089,"long":19.33459091,"kod_obce":"516210","name":"Modrý Kameň"},{"lat":48.58826828,"long":18.84937859,"kod_obce":"516589","name":"Žiar nad Hronom"},{"lat":48.4586525,"long":18.89303398,"kod_obce":"516643","name":"Banská Štiavnica"},{"lat":48.70511246,"long":18.9159317,"kod_obce":"516970","name":"Kremnica"},{"lat":48.42615128,"long":18.63656235,"kod_obce":"517097","name":"Nová Baňa"},{"lat":48.48836136,"long":18.70779419,"kod_obce":"517381","name":"Žarnovica"},{"lat":49.21954727,"long":18.74127388,"kod_obce":"517402","name":"Žilina"},{"lat":49.22319031,"long":18.55849075,"kod_obce":"517461","name":"Bytča"},{"lat":49.08961868,"long":18.63320541,"kod_obce":"517917","name":"Rajec"},{"lat":49.12779236,"long":18.68289948,"kod_obce":"517933","name":"Rajecké Teplice"},{"lat":48.57586288,"long":19.12562943,"kod_obce":"518158","name":"Zvolen"},{"lat":48.56037521,"long":19.41914368,"kod_obce":"518263","name":"Detva"},{"lat":48.17126083,"long":18.88026047,"kod_obce":"518387","name":"Dudince"},{"lat":48.5785408,"long":19.52761841,"kod_obce":"518468","name":"Hriňová"},{"lat":48.35428619,"long":19.06687546,"kod_obce":"518557","name":"Krupina"},{"lat":48.61717606,"long":19.13835526,"kod_obce":"518808","name":"Sliač"},{"lat":49.29468536,"long":21.27644157,"kod_obce":"519006","name":"Bardejov"},{"lat":49.11556244,"long":21.52030563,"kod_obce":"519197","name":"Giraltovce"},{"lat":48.93387604,"long":21.91072083,"kod_obce":"520004","name":"Humenné"},{"lat":49.27121735,"long":21.90353775,"kod_obce":"520471","name":"Medzilaborce"},{"lat":48.9875145,"long":22.15195656,"kod_obce":"520802","name":"Snina"},{"lat":48.69969559,"long":20.89250565,"kod_obce":"521671","name":"Medzev"},{"lat":48.61255264,"long":21.00087547,"kod_obce":"521698","name":"Moldava nad Bodvou"},{"lat":48.7559967,"long":21.91485786,"kod_obce":"522279","name":"Michalovce"},{"lat":48.74586487,"long":22.1797657,"kod_obce":"523089","name":"Sobrance"},{"lat":48.87314606,"long":21.83714676,"kod_obce":"523101","name":"Strážske"},{"lat":49.05700302,"long":20.30474472,"kod_obce":"523381","name":"Poprad"},{"lat":49.13732147,"long":20.42954254,"kod_obce":"523585","name":"Kežmarok"},{"lat":49.1885376,"long":20.45578766,"kod_obce":"523828","name":"Spišská Belá"},{"lat":49.38418579,"long":20.36035538,"kod_obce":"523836","name":"Spišská Stará Ves"},{"lat":49.06001663,"long":20.2071209,"kod_obce":"523925","name":"Svit"},{"lat":49.00247574,"long":21.23968315,"kod_obce":"524140","name":"Prešov"},{"lat":49.15291214,"long":20.96344948,"kod_obce":"524778","name":"Lipany"},{"lat":49.10282135,"long":21.09785461,"kod_obce":"525146","name":"Sabinov"},{"lat":49.03966141,"long":21.19409752,"kod_obce":"525405","name":"Veľký Šariš"},{"lat":48.66283035,"long":20.53386307,"kod_obce":"525529","name":"Rožňava"},{"lat":48.81989288,"long":20.36696053,"kod_obce":"525634","name":"Dobšiná"},{"lat":48.63051224,"long":20.23552704,"kod_obce":"525791","name":"Jelšava"},{"lat":48.68358231,"long":20.11438751,"kod_obce":"526142","name":"Revúca"},{"lat":48.94311523,"long":20.57294655,"kod_obce":"526355","name":"Spišská Nová Ves"},{"lat":48.85181046,"long":20.93394279,"kod_obce":"526509","name":"Gelnica"},{"lat":49.30221176,"long":20.69053078,"kod_obce":"526665","name":"Stará Ľubovňa"},{"lat":49.25754166,"long":20.53414726,"kod_obce":"526975","name":"Podolínec"},{"lat":49.30624771,"long":21.56833649,"kod_obce":"527106","name":"Svidník"},{"lat":49.20261765,"long":21.65182495,"kod_obce":"527840","name":"Stropkov"},{"lat":48.62960815,"long":21.71973991,"kod_obce":"528099","name":"Trebišov"},{"lat":48.41749954,"long":22.08704948,"kod_obce":"528293","name":"Čierna nad Tisou"},{"lat":48.42396927,"long":21.97828293,"kod_obce":"528447","name":"Kráľovský Chlmec"},{"lat":48.70311356,"long":21.65312386,"kod_obce":"528722","name":"Sečovce"},{"lat":48.71915054,"long":18.25924492,"kod_obce":"542652","name":"Bánovce nad Bebravou"},{"lat":48.91160202,"long":20.87413406,"kod_obce":"543268","name":"Krompachy"},{"lat":49.02602005,"long":20.58887482,"kod_obce":"543292","name":"Levoča"},{"lat":49.00001526,"long":20.75170326,"kod_obce":"543578","name":"Spišské Podhradie"},{"lat":48.94850159,"long":20.79412079,"kod_obce":"543594","name":"Spišské Vlachy"},{"lat":48.55364227,"long":22.07889748,"kod_obce":"543853","name":"Veľké Kapušany"},{"lat":48.89033508,"long":21.6829834,"kod_obce":"544051","name":"Vranov nad Topľou"},{"lat":49.02737045,"long":21.50366592,"kod_obce":"544213","name":"Hanušovce nad Topľou"},{"lat":49.11325073,"long":18.92305183,"kod_obce":"557358","name":"Vrútky"},{"lat":49.14172363,"long":20.21872139,"kod_obce":"560103","name":"Vysoké Tatry"},{"lat":48.14866257,"long":17.10813332,"kod_obce":"528595","name":"Bratislava - Staré Mesto"},{"lat":48.12519073,"long":17.21114922,"kod_obce":"529311","name":"Bratislava - Podunajské Biskupice"},{"lat":48.15829468,"long":17.16334915,"kod_obce":"529320","name":"Bratislava - Ružinov"},{"lat":48.14533234,"long":17.20733452,"kod_obce":"529338","name":"Bratislava - Vrakuňa"},{"lat":48.17123032,"long":17.14993095,"kod_obce":"529346","name":"Bratislava - Nové Mesto"},{"lat":48.21359634,"long":17.15185165,"kod_obce":"529354","name":"Bratislava - Rača"},{"lat":48.15989685,"long":17.12951088,"kod_obce":"529362","name":"Bratislava - Vajnory"},{"lat":48.20595169,"long":16.97854614,"kod_obce":"529371","name":"Bratislava - Devínska Nová Ves"},{"lat":48.19350433,"long":17.03395462,"kod_obce":"529389","name":"Bratislava - Dúbravka"},{"lat":48.15022278,"long":17.06212234,"kod_obce":"529397","name":"Bratislava - Karlova Ves"},{"lat":48.1733551,"long":16.98660278,"kod_obce":"529401","name":"Bratislava - Devín"},{"lat":48.19414139,"long":17.04685974,"kod_obce":"529419","name":"Bratislava - Lamač"},{"lat":48.24242401,"long":17.03823853,"kod_obce":"529427","name":"Bratislava - Záhorská Bystrica"},{"lat":48.03142166,"long":17.19990921,"kod_obce":"529435","name":"Bratislava - Čunovo"},{"lat":48.06505585,"long":17.11404419,"kod_obce":"529443","name":"Bratislava - Jarovce"},{"lat":48.11811066,"long":17.10696983,"kod_obce":"529460","name":"Bratislava - Petržalka"},{"lat":48.05607986,"long":17.14504623,"kod_obce":"529494","name":"Bratislava - Rusovce"},{"lat":48.77374649,"long":21.20772552,"kod_obce":"598119","name":"Košice - Kavečany"},{"lat":48.75739288,"long":21.25557899,"kod_obce":"598127","name":"Košice - Ťahanovce"},{"lat":48.73600388,"long":21.24572182,"kod_obce":"598151","name":"Košice - Sever"},{"lat":48.72099686,"long":21.25774765,"kod_obce":"598186","name":"Košice - Staré Mesto"},{"lat":48.69025421,"long":21.19230652,"kod_obce":"598194","name":"Košice - Lorinčík"},{"lat":48.68908691,"long":21.21147537,"kod_obce":"598208","name":"Košice - Pereš"},{"lat":48.71054459,"long":21.20357704,"kod_obce":"598216","name":"Košice - Myslava"},{"lat":48.71440887,"long":21.23557472,"kod_obce":"598224","name":"Košice - Západ"},{"lat":48.74420929,"long":21.27709007,"kod_obce":"598682","name":"Košice - Dargovských hrdinov"},{"lat":48.73338699,"long":21.2977829,"kod_obce":"599018","name":"Košice - Košická Nová Ves"},{"lat":48.67702484,"long":21.26534653,"kod_obce":"599093","name":"Košice - Barca"},{"lat":48.65495682,"long":21.27039909,"kod_obce":"599786","name":"Košice - Šebastovce"},{"lat":48.6713295,"long":21.31891251,"kod_obce":"599794","name":"Košice - Krásna"},{"lat":48.68934631,"long":21.2844696,"kod_obce":"599816","name":"Košice - Nad jazerom"},{"lat":48.70947266,"long":21.25693703,"kod_obce":"599824","name":"Košice - Juh"},{"lat":48.637043,"long":21.17134666,"kod_obce":"599841","name":"Košice - Šaca"},{"lat":48.66775131,"long":21.18875313,"kod_obce":"599859","name":"Košice - Poľov"},{"lat":48.75391006,"long":21.26752472,"kod_obce":"599875","name":"Košice - Sídlisko Ťahanovce"},{"lat":48.71590805,"long":21.21556282,"kod_obce":"599883","name":"Košice - Sídlisko KVP"},{"lat":48.73747635,"long":21.26847649,"kod_obce":"599891","name":"Košice - Džungľa"},{"lat":48.67162704,"long":21.31458664,"kod_obce":"599913","name":"Košice - Vyšné Opátske"},{"lat":48.6974144,"long":21.22205162,"kod_obce":"599972","name":"Košice - Luník IX"},{"lat":48.36696625,"long":17.94747162,"kod_obce":"500020","name":"Alekšince"},{"lat":48.31032562,"long":17.86828041,"kod_obce":"500046","name":"Báb"},{"lat":48.34511948,"long":18.29345512,"kod_obce":"500062","name":"Beladice"},{"lat":48.20994568,"long":18.14695358,"kod_obce":"500071","name":"Branč"},{"lat":48.36965942,"long":18.03790474,"kod_obce":"500101","name":"Čakajovce"},{"lat":48.35884476,"long":18.51070786,"kod_obce":"500127","name":"Čaradice"},{"lat":48.32523346,"long":18.241745,"kod_obce":"500135","name":"Čeľadice"},{"lat":48.35202026,"long":18.42083549,"kod_obce":"500151","name":"Čierne Kľačany"},{"lat":48.23239517,"long":18.39216995,"kod_obce":"500160","name":"Čifáre"},{"lat":48.31378937,"long":18.20913506,"kod_obce":"500194","name":"Dolné Obdokovce"},{"lat":48.2681694,"long":18.18676186,"kod_obce":"500232","name":"Golianovo"},{"lat":48.25110626,"long":17.86847687,"kod_obce":"500241","name":"Hájske"},{"lat":48.54429245,"long":17.24327278,"kod_obce":"500267","name":"Záhorie (vojenský obvod)"},{"lat":48.45071793,"long":18.4378891,"kod_obce":"500283","name":"Hostie"},{"lat":48.41695023,"long":18.35569763,"kod_obce":"500305","name":"Hosťovce"},{"lat":48.44502258,"long":18.02293015,"kod_obce":"500313","name":"Hruboňovo"},{"lat":48.35641479,"long":18.32277489,"kod_obce":"500321","name":"Choča"},{"lat":49.15005493,"long":18.21545601,"kod_obce":"500348","name":"Zubák"},{"lat":48.27625656,"long":17.95567703,"kod_obce":"500356","name":"Jarok"},{"lat":48.4718132,"long":18.49664116,"kod_obce":"500364","name":"Jedľové Kostoľany"},{"lat":48.37872696,"long":18.22371292,"kod_obce":"500372","name":"Jelenec"},{"lat":48.38439941,"long":18.05869293,"kod_obce":"500381","name":"Jelšovce"},{"lat":48.44927597,"long":17.97534943,"kod_obce":"500399","name":"Kapince"},{"lat":48.27666855,"long":18.25768089,"kod_obce":"500402","name":"Klasov"},{"lat":48.35928345,"long":18.19119453,"kod_obce":"500411","name":"Kolíňany"},{"lat":48.41522217,"long":18.24608612,"kod_obce":"500429","name":"Kostoľany pod Tribečom"},{"lat":48.39500809,"long":18.26132584,"kod_obce":"500437","name":"Ladice"},{"lat":48.31282806,"long":17.98939705,"kod_obce":"500453","name":"Lehota"},{"lat":48.4449234,"long":18.36255074,"kod_obce":"500461","name":"Lovce"},{"lat":48.21502304,"long":18.28433418,"kod_obce":"500470","name":"Lúčnica nad Žitavou"},{"lat":48.3975563,"long":17.93421364,"kod_obce":"500488","name":"Lukáčovce"},{"lat":48.41256714,"long":18.43078232,"kod_obce":"500500","name":"Machulince"},{"lat":48.28954315,"long":18.28531837,"kod_obce":"500518","name":"Veľké Chyndice"},{"lat":48.43598175,"long":17.98632622,"kod_obce":"500534","name":"Malé Zálužie"},{"lat":48.4261055,"long":18.32605171,"kod_obce":"500542","name":"Mankovce"},{"lat":48.39717484,"long":18.35500526,"kod_obce":"500551","name":"Martin nad Žitavou"},{"lat":48.20254517,"long":18.32703781,"kod_obce":"500569","name":"Melek"},{"lat":48.20746994,"long":18.06423759,"kod_obce":"500577","name":"Mojmírovce"},{"lat":48.30662918,"long":18.44551659,"kod_obce":"500585","name":"Nemčiňany"},{"lat":48.36724854,"long":18.27532959,"kod_obce":"500593","name":"Neverice"},{"lat":48.28644562,"long":18.37981224,"kod_obce":"500607","name":"Nevidzany"},{"lat":48.28939438,"long":18.32275009,"kod_obce":"500631","name":"Nová Ves nad Žitavou"},{"lat":48.41677856,"long":17.98005676,"kod_obce":"500640","name":"Nové Sady"},{"lat":48.42801285,"long":18.45385551,"kod_obce":"500658","name":"Obyce"},{"lat":48.22980881,"long":18.22771072,"kod_obce":"500666","name":"Paňa"},{"lat":48.38414764,"long":18.11196709,"kod_obce":"500674","name":"Podhorany"},{"lat":48.33127975,"long":18.18384361,"kod_obce":"500682","name":"Pohranice"},{"lat":48.16313171,"long":18.06325912,"kod_obce":"500691","name":"Poľný Kesov"},{"lat":48.3671875,"long":17.89709473,"kod_obce":"500704","name":"Rišňovce"},{"lat":48.32886887,"long":17.87001991,"kod_obce":"500712","name":"Rumanová"},{"lat":48.50519562,"long":18.42243385,"kod_obce":"500721","name":"Skýcov"},{"lat":48.23237991,"long":17.93185997,"kod_obce":"500739","name":"Močenok"},{"lat":48.3967514,"long":18.32871437,"kod_obce":"500747","name":"Sľažany"},{"lat":48.3102684,"long":18.33760452,"kod_obce":"500755","name":"Slepčany"},{"lat":48.42464066,"long":18.02105141,"kod_obce":"500780","name":"Šurianky"},{"lat":48.26650238,"long":18.36346436,"kod_obce":"500798","name":"Tajná"},{"lat":48.3458252,"long":18.36205673,"kod_obce":"500810","name":"Tesárske Mlyňany"},{"lat":48.41939545,"long":18.41248894,"kod_obce":"500828","name":"Topoľčianky"},{"lat":48.41561127,"long":18.30401802,"kod_obce":"500836","name":"Velčice"},{"lat":48.18507767,"long":18.03142738,"kod_obce":"500844","name":"Veľká Dolina"},{"lat":48.3095665,"long":17.93899155,"kod_obce":"500887","name":"Veľké Zálužie"},{"lat":48.22141647,"long":18.1955452,"kod_obce":"500895","name":"Veľký Cetín"},{"lat":48.31620407,"long":18.36174774,"kod_obce":"500909","name":"Vieska nad Žitavou"},{"lat":48.18921661,"long":18.20460129,"kod_obce":"500917","name":"Vinodol"},{"lat":48.33768845,"long":18.45512962,"kod_obce":"500925","name":"Volkovce"},{"lat":48.40769958,"long":18.0857048,"kod_obce":"500941","name":"Výčapy - Opatovce"},{"lat":48.36324692,"long":18.02114677,"kod_obce":"500950","name":"Zbehy"},{"lat":48.46289444,"long":18.31568909,"kod_obce":"500976","name":"Zlatno"},{"lat":48.44471741,"long":18.3821125,"kod_obce":"500984","name":"Žikava"},{"lat":48.38147736,"long":18.17204857,"kod_obce":"500992","name":"Žirany"},{"lat":48.20040512,"long":18.30110359,"kod_obce":"501018","name":"Žitavce"},{"lat":47.92840576,"long":18.20742989,"kod_obce":"501034","name":"Bajč"},{"lat":47.83429337,"long":17.83004379,"kod_obce":"501042","name":"Bodza"},{"lat":47.86009216,"long":17.82488823,"kod_obce":"501069","name":"Brestovec"},{"lat":47.8103447,"long":18.44432449,"kod_obce":"501077","name":"Búč"},{"lat":47.81857681,"long":17.98363495,"kod_obce":"501085","name":"Čalovec"},{"lat":47.77148819,"long":17.76634216,"kod_obce":"501093","name":"Číčov"},{"lat":47.94975281,"long":18.00576401,"kod_obce":"501107","name":"Dedina Mládeže"},{"lat":47.84655762,"long":18.26361465,"kod_obce":"501115","name":"Svätý Peter"},{"lat":47.86997604,"long":18.27709389,"kod_obce":"501123","name":"Dulovce"},{"lat":47.80357742,"long":18.23731995,"kod_obce":"501158","name":"Chotín"},{"lat":47.90505219,"long":18.13567352,"kod_obce":"501166","name":"Imeľ"},{"lat":47.74954224,"long":18.22572899,"kod_obce":"501174","name":"Iža"},{"lat":47.81824875,"long":18.04242325,"kod_obce":"501182","name":"Kameničná"},{"lat":47.7520752,"long":17.82001686,"kod_obce":"501191","name":"Klížska Nemá"},{"lat":47.76448822,"long":18.48333549,"kod_obce":"501212","name":"Kravany nad Dunajom"},{"lat":47.84080887,"long":17.85618973,"kod_obce":"501221","name":"Lipové"},{"lat":47.79014206,"long":18.28990173,"kod_obce":"501239","name":"Marcelová"},{"lat":47.85665512,"long":18.12808418,"kod_obce":"501247","name":"Martovce"},{"lat":47.75826263,"long":18.41119385,"kod_obce":"501255","name":"Moča"},{"lat":47.82207108,"long":18.35356331,"kod_obce":"501263","name":"Modrany"},{"lat":47.83262253,"long":18.31998253,"kod_obce":"501271","name":"Mudroňovo"},{"lat":47.92718887,"long":18.12795639,"kod_obce":"501280","name":"Nesvady"},{"lat":47.80482101,"long":17.92082405,"kod_obce":"501301","name":"Okoličná na Ostrove"},{"lat":47.73891449,"long":18.2895565,"kod_obce":"501310","name":"Patince"},{"lat":47.89908218,"long":18.31230545,"kod_obce":"501328","name":"Pribeta"},{"lat":47.7462616,"long":18.3704567,"kod_obce":"501336","name":"Radvaň nad Dunajom"},{"lat":47.85287476,"long":17.82859612,"kod_obce":"501344","name":"Sokolce"},{"lat":47.80399323,"long":18.32505226,"kod_obce":"501352","name":"Šrobárová"},{"lat":47.80428696,"long":17.83902168,"kod_obce":"501361","name":"Tôň"},{"lat":47.77632141,"long":17.79837227,"kod_obce":"501379","name":"Trávnik"},{"lat":47.76525879,"long":17.88334465,"kod_obce":"501387","name":"Veľké Kosihy"},{"lat":47.83048248,"long":18.41182709,"kod_obce":"501395","name":"Bátorove Kosihy"},{"lat":47.84931564,"long":18.05090141,"kod_obce":"501409","name":"Vrbová nad Váhom"},{"lat":47.81011581,"long":17.86387634,"kod_obce":"501417","name":"Zemianska Olča"},{"lat":47.76963043,"long":17.96981812,"kod_obce":"501425","name":"Zlatná na Ostrove"},{"lat":48.00422287,"long":17.37759209,"kod_obce":"501441","name":"Báč"},{"lat":47.90795135,"long":17.52066612,"kod_obce":"501450","name":"Baka"},{"lat":47.82685471,"long":17.67221642,"kod_obce":"501468","name":"Baloň"},{"lat":48.08578491,"long":17.53649902,"kod_obce":"501484","name":"Blahová"},{"lat":48.00495148,"long":17.43943787,"kod_obce":"501492","name":"Blatná na Ostrove"},{"lat":47.9200592,"long":17.69418716,"kod_obce":"501506","name":"Boheľov"},{"lat":48.11568832,"long":17.3614502,"kod_obce":"501514","name":"Čakany"},{"lat":47.82992554,"long":17.68463707,"kod_obce":"501531","name":"Čiližská Radvaň"},{"lat":47.9821701,"long":17.36335754,"kod_obce":"501549","name":"Dobrohošť"},{"lat":47.96602631,"long":17.68561745,"kod_obce":"501557","name":"Dolný Bar"},{"lat":47.89187241,"long":17.57704544,"kod_obce":"501573","name":"Gabčíkovo"},{"lat":47.99583054,"long":17.48459625,"kod_obce":"501581","name":"Holice"},{"lat":48.04049301,"long":17.48874283,"kod_obce":"501590","name":"Horná Potôň"},{"lat":47.94721603,"long":17.46347427,"kod_obce":"501603","name":"Horný Bar"},{"lat":47.93408203,"long":17.71387672,"kod_obce":"501611","name":"Dolný Štál"},{"lat":48.09584808,"long":17.39716148,"kod_obce":"501620","name":"Hubice"},{"lat":48.06877518,"long":17.34978294,"kod_obce":"501638","name":"Hviezdoslavov"},{"lat":48.05145264,"long":17.70327759,"kod_obce":"501654","name":"Jahodná"},{"lat":48.14060211,"long":17.39529228,"kod_obce":"501662","name":"Janíky"},{"lat":47.93383789,"long":17.52397537,"kod_obce":"501671","name":"Jurová"},{"lat":47.79576874,"long":17.71798515,"kod_obce":"501689","name":"Kľúčovec"},{"lat":47.98277664,"long":17.57629776,"kod_obce":"501697","name":"Kostolné Kračany"},{"lat":47.98740387,"long":17.55412292,"kod_obce":"501701","name":"Kráľovičove Kračany"},{"lat":47.97630692,"long":17.661026,"kod_obce":"501719","name":"Kútniky"},{"lat":48.05696106,"long":17.34200859,"kod_obce":"501727","name":"Kvetoslavov"},{"lat":48.05083847,"long":17.45719337,"kod_obce":"501735","name":"Lehnice"},{"lat":47.97284317,"long":17.52426147,"kod_obce":"501743","name":"Lúč na Ostrove"},{"lat":47.79892349,"long":17.66305351,"kod_obce":"501760","name":"Medveďov"},{"lat":48.07004929,"long":17.38676071,"kod_obce":"501778","name":"Mierovo"},{"lat":48.02363205,"long":17.51204491,"kod_obce":"501786","name":"Michal na Ostrove"},{"lat":48.12145615,"long":17.46582794,"kod_obce":"501808","name":"Nový Život"},{"lat":47.98998642,"long":17.69978333,"kod_obce":"501816","name":"Ohrady"},{"lat":47.88768005,"long":17.80938148,"kod_obce":"501824","name":"Okoč"},{"lat":48.08627319,"long":17.42060471,"kod_obce":"501832","name":"Oľdza"},{"lat":48.01726151,"long":17.52944374,"kod_obce":"501859","name":"Orechová Potôň"},{"lat":47.92923355,"long":17.68298721,"kod_obce":"501867","name":"Padáň"},{"lat":47.82161713,"long":17.61491585,"kod_obce":"501875","name":"Sap"},{"lat":47.87432861,"long":17.65509605,"kod_obce":"501883","name":"Pataš"},{"lat":47.99707031,"long":17.40891838,"kod_obce":"501891","name":"Rohovce"},{"lat":48.0993576,"long":17.35397911,"kod_obce":"501913","name":"Štvrtok na Ostrove"},{"lat":47.9682045,"long":17.78595924,"kod_obce":"501921","name":"Topoľníky"},{"lat":47.83663177,"long":17.60971451,"kod_obce":"501930","name":"Ňárad"},{"lat":48.01401901,"long":17.4050808,"kod_obce":"501956","name":"Trnávka"},{"lat":47.91944122,"long":17.50009537,"kod_obce":"501964","name":"Trstená na Ostrove"},{"lat":48.03946304,"long":17.40736961,"kod_obce":"501972","name":"Veľká Paka"},{"lat":48.0100708,"long":17.57849693,"kod_obce":"501981","name":"Veľké Blahovo"},{"lat":47.97599411,"long":17.38075829,"kod_obce":"501999","name":"Vojka nad Dunajom"},{"lat":47.93857574,"long":17.60424423,"kod_obce":"502006","name":"Vrakúň"},{"lat":48.01849365,"long":17.58660126,"kod_obce":"502014","name":"Vydrany"},{"lat":48.11861038,"long":17.41981697,"kod_obce":"502022","name":"Zlaté Klasy"},{"lat":48.15100098,"long":18.51864624,"kod_obce":"502049","name":"Bajka"},{"lat":48.29091263,"long":18.74456596,"kod_obce":"502057","name":"Bátovce"},{"lat":48.14433289,"long":18.40363312,"kod_obce":"502065","name":"Beša"},{"lat":47.99224854,"long":18.77407265,"kod_obce":"502073","name":"Bielovce"},{"lat":48.1789093,"long":18.74996758,"kod_obce":"502090","name":"Bory"},{"lat":48.21627045,"long":18.7401886,"kod_obce":"502103","name":"Brhlovce"},{"lat":48.29034424,"long":18.59930038,"kod_obce":"502111","name":"Čajkov"},{"lat":48.03975677,"long":18.46935463,"kod_obce":"502120","name":"Čaka"},{"lat":48.12649918,"long":18.78205872,"kod_obce":"502154","name":"Demandice"},{"lat":48.32419205,"long":18.70648575,"kod_obce":"502162","name":"Devičany"},{"lat":48.17585373,"long":18.56370163,"kod_obce":"502171","name":"Dolná Seč"},{"lat":48.11360168,"long":18.84929276,"kod_obce":"502189","name":"Dolné Semerovce"},{"lat":48.13139725,"long":18.46199226,"kod_obce":"502197","name":"Dolný Pial"},{"lat":48.17808151,"long":18.77927017,"kod_obce":"502201","name":"Domadice"},{"lat":48.28675461,"long":18.69541931,"kod_obce":"502219","name":"Drženice"},{"lat":48.00606537,"long":18.51114082,"kod_obce":"502227","name":"Farná"},{"lat":48.15532684,"long":18.87029076,"kod_obce":"502243","name":"Hokovce"},{"lat":48.13591003,"long":18.70350647,"kod_obce":"502251","name":"Hontianska Vrbica"},{"lat":48.19494247,"long":18.54193497,"kod_obce":"502260","name":"Horná Seč"},{"lat":48.12498856,"long":18.877882,"kod_obce":"502278","name":"Horné Semerovce"},{"lat":48.12492371,"long":18.94491005,"kod_obce":"502286","name":"Horné Turovce"},{"lat":48.1562233,"long":18.4498558,"kod_obce":"502294","name":"Horný Pial"},{"lat":48.00394058,"long":18.65614891,"kod_obce":"502324","name":"Hronovce"},{"lat":48.2400856,"long":18.56995773,"kod_obce":"502332","name":"Hronské Kľačany"},{"lat":48.26778793,"long":18.59498787,"kod_obce":"502341","name":"Hronské Kosihy"},{"lat":48.17237854,"long":18.41844368,"kod_obce":"502359","name":"Iňa"},{"lat":48.12570572,"long":19.05111885,"kod_obce":"502367","name":"Ipeľské Úľany"},{"lat":48.01555252,"long":18.81016731,"kod_obce":"502375","name":"Ipeľský Sokolec"},{"lat":48.31704712,"long":18.78909302,"kod_obce":"502383","name":"Jabloňovce"},{"lat":48.12516403,"long":18.62721062,"kod_obce":"502391","name":"Jur nad Hronom"},{"lat":48.20308685,"long":18.52028847,"kod_obce":"502413","name":"Kalná nad Hronom"},{"lat":48.31804657,"long":18.51988602,"kod_obce":"502421","name":"Kozárovce"},{"lat":48.21494675,"long":18.67556,"kod_obce":"502430","name":"Krškany"},{"lat":48.05761337,"long":18.80769157,"kod_obce":"502448","name":"Kubáňovo"},{"lat":48.09066772,"long":18.69738579,"kod_obce":"502456","name":"Kukučínov"},{"lat":47.98078918,"long":18.54081154,"kod_obce":"502464","name":"Kuraľany"},{"lat":47.96529388,"long":18.56857872,"kod_obce":"502472","name":"Keť"},{"lat":48.18173981,"long":18.45841217,"kod_obce":"502481","name":"Lok"},{"lat":48.04120255,"long":18.7773056,"kod_obce":"502499","name":"Lontov"},{"lat":48.17733002,"long":18.35832214,"kod_obce":"502502","name":"Lula"},{"lat":48.05037308,"long":18.52475357,"kod_obce":"502511","name":"Málaš"},{"lat":47.98501587,"long":18.69950485,"kod_obce":"502537","name":"Malé Ludince"},{"lat":48.16449738,"long":18.66371918,"kod_obce":"502570","name":"Mýtne Ludany"},{"lat":48.28763962,"long":18.65539551,"kod_obce":"502588","name":"Nová Dedina"},{"lat":48.24410248,"long":18.52055931,"kod_obce":"502596","name":"Nový Tekov"},{"lat":48.02460861,"long":18.57413483,"kod_obce":"502600","name":"Nýrovce"},{"lat":48.13557816,"long":18.51579475,"kod_obce":"502618","name":"Ondrejovce"},{"lat":47.96937943,"long":18.75157166,"kod_obce":"502626","name":"Pastovce"},{"lat":48.29807663,"long":18.77248383,"kod_obce":"502634","name":"Pečenice"},{"lat":48.15991592,"long":18.97763062,"kod_obce":"502642","name":"Plášťovce"},{"lat":48.07022858,"long":18.46556664,"kod_obce":"502651","name":"Plavé Vozokany"},{"lat":48.25436401,"long":18.60704231,"kod_obce":"502669","name":"Podlužany"},{"lat":47.97202301,"long":18.65245438,"kod_obce":"502677","name":"Pohronský Ruskov"},{"lat":48.3524437,"long":18.72119904,"kod_obce":"502693","name":"Pukanec"},{"lat":48.28945923,"long":18.56210709,"kod_obce":"502707","name":"Rybník"},{"lat":48.1570015,"long":18.76639175,"kod_obce":"502715","name":"Santovka"},{"lat":48.08240128,"long":18.80194855,"kod_obce":"502723","name":"Sazdice"},{"lat":48.07727051,"long":18.71648788,"kod_obce":"502731","name":"Sikenica"},{"lat":48.14707947,"long":18.90361786,"kod_obce":"502740","name":"Slatina"},{"lat":48.15050507,"long":18.63716125,"kod_obce":"502758","name":"Starý Hrádok"},{"lat":48.24523926,"long":18.53623009,"kod_obce":"502766","name":"Starý Tekov"},{"lat":48.00367355,"long":18.70724487,"kod_obce":"502791","name":"Šalov"},{"lat":48.10344315,"long":18.63660431,"kod_obce":"502804","name":"Šarovce"},{"lat":48.18492126,"long":18.38648415,"kod_obce":"502812","name":"Tehla"},{"lat":48.09873581,"long":18.54015732,"kod_obce":"502821","name":"Tekovské Lužany"},{"lat":48.16725159,"long":18.55202866,"kod_obce":"502847","name":"Tekovský Hrádok"},{"lat":48.10757828,"long":18.8897953,"kod_obce":"502871","name":"Tupá"},{"lat":48.15606689,"long":18.58165169,"kod_obce":"502880","name":"Turá"},{"lat":48.40191269,"long":18.75286293,"kod_obce":"502898","name":"Uhliská"},{"lat":47.96316147,"long":18.51159096,"kod_obce":"502910","name":"Veľké Ludince"},{"lat":48.10123062,"long":18.94489288,"kod_obce":"502928","name":"Veľké Turovce"},{"lat":48.20720673,"long":18.44566154,"kod_obce":"502936","name":"Veľký Ďur"},{"lat":48.05579376,"long":18.86574173,"kod_obce":"502944","name":"Vyškovce nad Ipľom"},{"lat":48.16341782,"long":18.58489227,"kod_obce":"502952","name":"Vyšné nad Hronom"},{"lat":47.96221542,"long":18.70065498,"kod_obce":"502961","name":"Zalaba"},{"lat":48.11067581,"long":18.70402718,"kod_obce":"502979","name":"Zbrojníky"},{"lat":48.25830841,"long":18.74165344,"kod_obce":"502995","name":"Žemberovce"},{"lat":48.14777756,"long":18.60368729,"kod_obce":"503002","name":"Žemliare"},{"lat":47.99394989,"long":18.10675812,"kod_obce":"503029","name":"Andovce"},{"lat":47.85602951,"long":18.74469376,"kod_obce":"503037","name":"Bajtava"},{"lat":48.04914856,"long":18.19174767,"kod_obce":"503045","name":"Bánov"},{"lat":48.11076355,"long":18.42137146,"kod_obce":"503053","name":"Bardoňovo"},{"lat":47.83081818,"long":18.59623718,"kod_obce":"503061","name":"Belá"},{"lat":48.04419708,"long":18.26152039,"kod_obce":"503070","name":"Bešeňov"},{"lat":47.92206192,"long":18.64235878,"kod_obce":"503088","name":"Bíňa"},{"lat":48.0236969,"long":18.30606461,"kod_obce":"503096","name":"Branovo"},{"lat":47.92396927,"long":18.58053398,"kod_obce":"503100","name":"Bruty"},{"lat":48.03451538,"long":18.37231064,"kod_obce":"503118","name":"Čechy"},{"lat":48.15527725,"long":18.22327423,"kod_obce":"503126","name":"Černík"},{"lat":48.06473923,"long":18.42176247,"kod_obce":"503134","name":"Dedinka"},{"lat":48.08319855,"long":18.25050163,"kod_obce":"503151","name":"Dolný Ohaj"},{"lat":47.95705795,"long":18.41108894,"kod_obce":"503169","name":"Dubník"},{"lat":47.99361801,"long":18.26428604,"kod_obce":"503177","name":"Dvory nad Žitavou"},{"lat":47.8502388,"long":18.5093689,"kod_obce":"503185","name":"Gbelce"},{"lat":48.10069656,"long":18.26719666,"kod_obce":"503193","name":"Hul"},{"lat":47.82981491,"long":18.82679367,"kod_obce":"503207","name":"Chľaba"},{"lat":47.98961639,"long":18.39625549,"kod_obce":"503215","name":"Jasová"},{"lat":48.12820053,"long":18.02821541,"kod_obce":"503223","name":"Jatov"},{"lat":47.83162308,"long":18.7238102,"kod_obce":"503231","name":"Kamenica nad Hronom"},{"lat":47.88792419,"long":18.64512825,"kod_obce":"503240","name":"Kamenín"},{"lat":47.85407639,"long":18.65322304,"kod_obce":"503258","name":"Kamenný Most"},{"lat":48.1672287,"long":18.27750015,"kod_obce":"503266","name":"Kmeťovo"},{"lat":48.01711655,"long":18.41338158,"kod_obce":"503274","name":"Kolta"},{"lat":48.15714645,"long":18.170084,"kod_obce":"503282","name":"Komjatice"},{"lat":47.94887543,"long":18.02243805,"kod_obce":"503291","name":"Komoča"},{"lat":47.85803986,"long":18.77278328,"kod_obce":"503312","name":"Leľa"},{"lat":48.10873032,"long":18.17835808,"kod_obce":"503321","name":"Lipová"},{"lat":47.85176849,"long":18.59451485,"kod_obce":"503339","name":"Ľubá"},{"lat":47.85521317,"long":18.67788887,"kod_obce":"503347","name":"Malá nad Hronom"},{"lat":47.92357635,"long":18.74959183,"kod_obce":"503355","name":"Malé Kosihy"},{"lat":48.14953613,"long":18.28513908,"kod_obce":"503363","name":"Maňa"},{"lat":48.18497086,"long":18.28364944,"kod_obce":"503371","name":"Michal nad Žitavou"},{"lat":48.1830368,"long":18.14852524,"kod_obce":"503380","name":"Veľký Kýr"},{"lat":48.13460541,"long":18.23762321,"kod_obce":"503398","name":"Mojzesovo"},{"lat":47.79328156,"long":18.59758377,"kod_obce":"503401","name":"Mužla"},{"lat":47.8705864,"long":18.46213531,"kod_obce":"503436","name":"Nová Vieska"},{"lat":48.04057693,"long":18.07086563,"kod_obce":"503452","name":"Palárikovo"},{"lat":47.92525482,"long":17.45732117,"kod_obce":"503461","name":"Bodíky"},{"lat":48.10228729,"long":18.33999252,"kod_obce":"503479","name":"Podhájska"},{"lat":48.1133194,"long":18.38746452,"kod_obce":"503487","name":"Pozba"},{"lat":48.09348297,"long":18.30234718,"kod_obce":"503495","name":"Radava"},{"lat":48.1367569,"long":18.07479095,"kod_obce":"503509","name":"Rastislavice"},{"lat":47.92591095,"long":18.4029007,"kod_obce":"503517","name":"Rúbaň"},{"lat":47.88812637,"long":18.75523567,"kod_obce":"503525","name":"Salka"},{"lat":48.01169205,"long":18.35581779,"kod_obce":"503533","name":"Semerovo"},{"lat":47.93529129,"long":18.68250275,"kod_obce":"503541","name":"Sikenička"},{"lat":47.90240479,"long":18.41819191,"kod_obce":"503550","name":"Strekov"},{"lat":47.91085434,"long":18.49894714,"kod_obce":"503568","name":"Svodín"},{"lat":47.85763168,"long":18.55357933,"kod_obce":"503576","name":"Šarkan"},{"lat":48.13725662,"long":18.33514595,"kod_obce":"503606","name":"Trávnica"},{"lat":48.09501266,"long":18.06376076,"kod_obce":"503614","name":"Tvrdošovce"},{"lat":48.06089401,"long":18.3344593,"kod_obce":"503631","name":"Veľké Lovce"},{"lat":47.98377228,"long":17.99606895,"kod_obce":"503649","name":"Zemné"},{"lat":48.24820709,"long":17.61981201,"kod_obce":"503673","name":"Abrahám"},{"lat":48.23764038,"long":17.42926407,"kod_obce":"503681","name":"Boldog"},{"lat":48.1295433,"long":17.65310669,"kod_obce":"503690","name":"Čierna Voda"},{"lat":48.14965439,"long":17.65961838,"kod_obce":"503703","name":"Čierny Brod"},{"lat":48.1357193,"long":17.84238815,"kod_obce":"503711","name":"Diakovce"},{"lat":48.17024994,"long":17.86060905,"kod_obce":"503720","name":"Dlhá nad Váhom"},{"lat":48.10851669,"long":17.78042984,"kod_obce":"503746","name":"Dolné Saliby"},{"lat":47.99927139,"long":17.86575508,"kod_obce":"503754","name":"Dolný Chotár"},{"lat":48.23203278,"long":17.7174015,"kod_obce":"503762","name":"Gáň"},{"lat":48.12522125,"long":17.74920464,"kod_obce":"503771","name":"Horné Saliby"},{"lat":48.26072693,"long":17.63880539,"kod_obce":"503789","name":"Hoste"},{"lat":48.1812973,"long":17.48423195,"kod_obce":"503797","name":"Hrubá Borša"},{"lat":48.17106628,"long":17.42095184,"kod_obce":"503801","name":"Hrubý Šúr"},{"lat":48.15222168,"long":17.43736267,"kod_obce":"503819","name":"Hurbanova Ves"},{"lat":48.17658615,"long":17.53185844,"kod_obce":"503827","name":"Jánovce"},{"lat":48.1432724,"long":17.50258636,"kod_obce":"503835","name":"Jelka"},{"lat":48.18336868,"long":17.79019165,"kod_obce":"503843","name":"Kajal"},{"lat":48.18618011,"long":17.43338394,"kod_obce":"503851","name":"Kostolná pri Dunaji"},{"lat":48.17182541,"long":17.65924263,"kod_obce":"503860","name":"Košúty"},{"lat":48.06023788,"long":17.82685089,"kod_obce":"503878","name":"Kráľov Brod"},{"lat":48.16779327,"long":17.84200668,"kod_obce":"503886","name":"Kráľová nad Váhom"},{"lat":48.1950264,"long":17.45055008,"kod_obce":"503894","name":"Kráľová pri Senci"},{"lat":48.14207458,"long":17.67703438,"kod_obce":"503924","name":"Mostová"},{"lat":48.01791382,"long":17.97089005,"kod_obce":"503932","name":"Neded"},{"lat":48.2734375,"long":17.82792091,"kod_obce":"503959","name":"Pata"},{"lat":48.3093605,"long":17.82954597,"kod_obce":"503967","name":"Pusté Sady"},{"lat":48.23147583,"long":17.56990814,"kod_obce":"503975","name":"Pusté Úľany"},{"lat":48.23250961,"long":17.44786835,"kod_obce":"503983","name":"Reca"},{"lat":48.08931351,"long":17.96917152,"kod_obce":"503991","name":"Selice"},{"lat":48.33415222,"long":17.8164444,"kod_obce":"504033","name":"Šalgočka"},{"lat":48.28285599,"long":17.75317383,"kod_obce":"504041","name":"Šintava"},{"lat":48.25317001,"long":17.81436539,"kod_obce":"504050","name":"Šoporňa"},{"lat":48.10616684,"long":17.84642982,"kod_obce":"504068","name":"Tešedíkovo"},{"lat":48.08303833,"long":17.69402122,"kod_obce":"504076","name":"Tomášikovo"},{"lat":48.17078018,"long":17.79572868,"kod_obce":"504084","name":"Topoľnica"},{"lat":48.14702606,"long":17.92650986,"kod_obce":"504092","name":"Trnovec nad Váhom"},{"lat":48.01612854,"long":17.80281448,"kod_obce":"504106","name":"Trstice"},{"lat":48.25159836,"long":17.7804966,"kod_obce":"504114","name":"Váhovce"},{"lat":48.24356079,"long":17.69227409,"kod_obce":"504122","name":"Veľká Mača"},{"lat":48.16444397,"long":17.57540131,"kod_obce":"504131","name":"Veľké Úľany"},{"lat":48.25117111,"long":17.49438858,"kod_obce":"504149","name":"Veľký Grob"},{"lat":48.30751419,"long":17.76387978,"kod_obce":"504157","name":"Vinohrady nad Váhom"},{"lat":48.03100967,"long":17.94689369,"kod_obce":"504165","name":"Vlčany"},{"lat":48.10219955,"long":17.68871307,"kod_obce":"504173","name":"Vozokany"},{"lat":48.32741165,"long":17.8198719,"kod_obce":"504181","name":"Zemianske Sady"},{"lat":48.07286835,"long":17.88142014,"kod_obce":"504190","name":"Žihárec"},{"lat":48.58748627,"long":17.23809433,"kod_obce":"504211","name":"Bílkove Humence"},{"lat":48.61494064,"long":17.04981041,"kod_obce":"504220","name":"Borský Svätý Jur"},{"lat":48.62952805,"long":17.20713234,"kod_obce":"504238","name":"Borský Mikuláš"},{"lat":48.79326248,"long":17.56669998,"kod_obce":"504254","name":"Brestovec"},{"lat":48.69242477,"long":17.01347733,"kod_obce":"504271","name":"Brodské"},{"lat":48.69945526,"long":17.49686432,"kod_obce":"504289","name":"Bukovec"},{"lat":48.58540726,"long":17.38130569,"kod_obce":"504297","name":"Cerová"},{"lat":48.65480042,"long":17.08533096,"kod_obce":"504319","name":"Čáry"},{"lat":48.74928284,"long":17.35126495,"kod_obce":"504327","name":"Častkov"},{"lat":48.67670822,"long":17.2572937,"kod_obce":"504335","name":"Dojč"},{"lat":48.77270126,"long":17.24876785,"kod_obce":"504343","name":"Dubovce"},{"lat":48.65913391,"long":17.40704536,"kod_obce":"504360","name":"Hlboké"},{"lat":48.62747574,"long":17.48712921,"kod_obce":"504386","name":"Hradište pod Vrátnom"},{"lat":48.77328491,"long":17.31822968,"kod_obce":"504394","name":"Chropov"},{"lat":48.79950714,"long":17.41049385,"kod_obce":"504408","name":"Chvojnica"},{"lat":48.60668945,"long":17.42172813,"kod_obce":"504416","name":"Jablonica"},{"lat":48.72581863,"long":17.60866165,"kod_obce":"504424","name":"Jablonka"},{"lat":48.83253098,"long":17.16971016,"kod_obce":"504432","name":"Kátov"},{"lat":48.78476715,"long":17.11519814,"kod_obce":"504459","name":"Kopčany"},{"lat":48.67041016,"long":17.59665108,"kod_obce":"504467","name":"Košariská"},{"lat":48.7027359,"long":17.28205681,"kod_obce":"504475","name":"Koválov"},{"lat":48.78468323,"long":17.30632973,"kod_obce":"504483","name":"Koválovec"},{"lat":48.64065933,"long":17.06679535,"kod_obce":"504491","name":"Kuklov"},{"lat":48.65880966,"long":17.01973152,"kod_obce":"504513","name":"Kúty"},{"lat":48.57802963,"long":17.18379784,"kod_obce":"504521","name":"Lakšárska Nová Ves"},{"lat":48.71298981,"long":17.17791367,"kod_obce":"504530","name":"Letničie"},{"lat":48.75057983,"long":17.32855225,"kod_obce":"504548","name":"Lopašov"},{"lat":48.50217056,"long":16.97039795,"kod_obce":"504556","name":"Malé Leváre"},{"lat":48.81184387,"long":17.24544525,"kod_obce":"504564","name":"Mokrý Háj"},{"lat":48.58683777,"long":16.99554443,"kod_obce":"504572","name":"Moravský Svätý Ján"},{"lat":48.74542618,"long":17.30380249,"kod_obce":"504599","name":"Oreské"},{"lat":48.62421799,"long":17.44176865,"kod_obce":"504602","name":"Osuské"},{"lat":48.72302628,"long":17.16195107,"kod_obce":"504611","name":"Petrova Ves"},{"lat":48.48609161,"long":17.25696564,"kod_obce":"504629","name":"Plavecké Podhradie"},{"lat":48.5089798,"long":17.30415344,"kod_obce":"504637","name":"Plavecký Mikuláš"},{"lat":48.53520203,"long":17.32421494,"kod_obce":"504645","name":"Plavecký Peter"},{"lat":48.72942352,"long":17.44639587,"kod_obce":"504653","name":"Podbranč"},{"lat":48.72186279,"long":17.57924652,"kod_obce":"504661","name":"Polianka"},{"lat":48.78633499,"long":17.2202816,"kod_obce":"504670","name":"Popudinské Močidľany"},{"lat":48.77549744,"long":17.60740089,"kod_obce":"504688","name":"Poriadie"},{"lat":48.70088577,"long":17.59082985,"kod_obce":"504696","name":"Priepasné"},{"lat":48.67726517,"long":17.44415092,"kod_obce":"504700","name":"Prietrž"},{"lat":48.80502319,"long":17.19608307,"kod_obce":"504718","name":"Prietržka"},{"lat":48.55710983,"long":17.3495369,"kod_obce":"504726","name":"Prievaly"},{"lat":48.75063705,"long":17.19843674,"kod_obce":"504734","name":"Radimov"},{"lat":48.77342224,"long":17.27669716,"kod_obce":"504742","name":"Radošovce"},{"lat":48.45623398,"long":17.16996384,"kod_obce":"504769","name":"Rohožník"},{"lat":48.71057129,"long":17.37821579,"kod_obce":"504777","name":"Rovensko"},{"lat":48.76025009,"long":17.63039589,"kod_obce":"504793","name":"Rudník"},{"lat":48.6747818,"long":17.1300602,"kod_obce":"504823","name":"Smolinské"},{"lat":48.72311401,"long":17.30055618,"kod_obce":"504831","name":"Smrdáky"},{"lat":48.74080276,"long":17.40888023,"kod_obce":"504840","name":"Sobotište"},{"lat":48.4653511,"long":17.23061371,"kod_obce":"504858","name":"Sološnica"},{"lat":48.79199219,"long":17.58866882,"kod_obce":"504866","name":"Stará Myjava"},{"lat":48.5267067,"long":17.1355114,"kod_obce":"504874","name":"Studienka"},{"lat":48.65896988,"long":17.26518631,"kod_obce":"504882","name":"Šajdíkove Humence"},{"lat":48.67842484,"long":17.20043755,"kod_obce":"504904","name":"Štefanov"},{"lat":48.79978943,"long":17.18854713,"kod_obce":"504912","name":"Trnovec"},{"lat":48.725914,"long":17.21300125,"kod_obce":"504939","name":"Unín"},{"lat":48.50318146,"long":17.00169754,"kod_obce":"504947","name":"Veľké Leváre"},{"lat":48.82402802,"long":17.19175529,"kod_obce":"504963","name":"Vrádište"},{"lat":48.7990799,"long":17.46867943,"kod_obce":"504971","name":"Vrbovce"},{"lat":48.5476265,"long":17.03026009,"kod_obce":"504980","name":"Závod"},{"lat":48.5691452,"long":18.01208687,"kod_obce":"505021","name":"Lipovník"},{"lat":48.49720764,"long":18.11862564,"kod_obce":"505048","name":"Ludanice"},{"lat":48.7784729,"long":18.28275299,"kod_obce":"505056","name":"Ľutov"},{"lat":48.51543427,"long":18.01428604,"kod_obce":"505064","name":"Lužany"},{"lat":48.7598114,"long":18.16475677,"kod_obce":"505072","name":"Malá Hradná"},{"lat":48.69749451,"long":18.13964081,"kod_obce":"505102","name":"Malé Hoste"},{"lat":48.63880157,"long":18.42546844,"kod_obce":"505129","name":"Malé Kršteňany"},{"lat":48.47833252,"long":17.98260498,"kod_obce":"505137","name":"Malé Ripňany"},{"lat":48.719841,"long":18.31592751,"kod_obce":"505153","name":"Miezgovce"},{"lat":48.62007523,"long":18.2518158,"kod_obce":"505170","name":"Nadlice"},{"lat":48.59257889,"long":18.29204559,"kod_obce":"505196","name":"Nedanovce"},{"lat":48.66834259,"long":18.31292152,"kod_obce":"505200","name":"Nedašovce"},{"lat":48.67219162,"long":18.11582375,"kod_obce":"505226","name":"Nemečky"},{"lat":48.55602264,"long":17.96801567,"kod_obce":"505234","name":"Nitrianska Blatnica"},{"lat":48.52126694,"long":18.17523575,"kod_obce":"505242","name":"Nitrianska Streda"},{"lat":48.63267136,"long":18.17811394,"kod_obce":"505251","name":"Norovce"},{"lat":48.77711868,"long":18.38866234,"kod_obce":"505277","name":"Omastiná"},{"lat":48.46800613,"long":18.14421082,"kod_obce":"505285","name":"Oponice"},{"lat":48.644104,"long":18.28077888,"kod_obce":"505307","name":"Ostratice"},{"lat":48.63225555,"long":18.43596458,"kod_obce":"505323","name":"Pažiť"},{"lat":48.67412567,"long":18.22734261,"kod_obce":"505331","name":"Pečeňany"},{"lat":48.65973663,"long":18.0512886,"kod_obce":"505340","name":"Podhradie"},{"lat":48.76456451,"long":18.24093056,"kod_obce":"505358","name":"Podlužany"},{"lat":48.64191818,"long":18.10758591,"kod_obce":"505374","name":"Prašice"},{"lat":48.68238449,"long":18.2930584,"kod_obce":"505382","name":"Pravotice"},{"lat":48.45001602,"long":18.09908104,"kod_obce":"505404","name":"Preseľany"},{"lat":48.75837326,"long":18.26069832,"kod_obce":"505412","name":"Prusy"},{"lat":48.54631424,"long":17.93651581,"kod_obce":"505421","name":"Radošina"},{"lat":48.61211777,"long":18.23442078,"kod_obce":"505439","name":"Rajčany"},{"lat":48.74527359,"long":18.19115257,"kod_obce":"505447","name":"Ruskovce"},{"lat":48.66947556,"long":18.25656891,"kod_obce":"505455","name":"Rybany"},{"lat":48.6607933,"long":18.37852669,"kod_obce":"505463","name":"Skačany"},{"lat":48.83721924,"long":18.26436043,"kod_obce":"505471","name":"Slatina nad Bebravou"},{"lat":48.84270859,"long":18.24189377,"kod_obce":"505480","name":"Slatinka nad Bebravou"},{"lat":48.53821564,"long":18.20291519,"kod_obce":"505498","name":"Solčany"},{"lat":48.46337891,"long":18.17332649,"kod_obce":"505510","name":"Súlovce"},{"lat":48.52573776,"long":17.89755249,"kod_obce":"505536","name":"Šalgovce"},{"lat":48.85229492,"long":18.29564667,"kod_obce":"505544","name":"Šípkov"},{"lat":48.65569687,"long":18.18146133,"kod_obce":"505552","name":"Šišov"},{"lat":48.60191345,"long":18.08864403,"kod_obce":"505561","name":"Tesáre"},{"lat":48.81156158,"long":18.2365551,"kod_obce":"505579","name":"Timoradza"},{"lat":48.8215332,"long":18.30104828,"kod_obce":"505595","name":"Trebichava"},{"lat":48.63803864,"long":18.13398361,"kod_obce":"505617","name":"Tvrdomestice"},{"lat":48.74419022,"long":18.33784103,"kod_obce":"505625","name":"Uhrovec"},{"lat":48.7635994,"long":18.37966156,"kod_obce":"505633","name":"Uhrovské Podhradie"},{"lat":48.53400421,"long":18.09776306,"kod_obce":"505641","name":"Urmince"},{"lat":48.55737305,"long":18.07278824,"kod_obce":"505676","name":"Veľké Dvorany"},{"lat":48.67918777,"long":18.15851974,"kod_obce":"505684","name":"Veľké Hoste"},{"lat":48.70383072,"long":18.2266655,"kod_obce":"505692","name":"Veľké Chlievany"},{"lat":48.6449852,"long":18.41444397,"kod_obce":"505706","name":"Veľké Kršteňany"},{"lat":48.50080872,"long":17.98092842,"kod_obce":"505714","name":"Veľké Ripňany"},{"lat":48.611866,"long":18.43556213,"kod_obce":"505722","name":"Veľké Uherce"},{"lat":48.55112457,"long":18.36660957,"kod_obce":"505731","name":"Veľký Klíž"},{"lat":48.62955856,"long":18.0969696,"kod_obce":"505749","name":"Velušovce"},{"lat":48.56756592,"long":17.99502182,"kod_obce":"505757","name":"Vozokany"},{"lat":48.67854309,"long":18.31939507,"kod_obce":"505765","name":"Vysočany"},{"lat":48.64154816,"long":18.08583641,"kod_obce":"505773","name":"Závada"},{"lat":48.71226501,"long":18.12187004,"kod_obce":"505790","name":"Zlatníky"},{"lat":48.62613678,"long":18.30259132,"kod_obce":"505803","name":"Žabokreky nad Nitrou"},{"lat":48.76652908,"long":18.34438705,"kod_obce":"505811","name":"Žitná - Radiša"},{"lat":48.85322952,"long":17.92474937,"kod_obce":"505838","name":"Adamovské Kochanovce"},{"lat":48.78915405,"long":17.89526558,"kod_obce":"505846","name":"Beckov"},{"lat":48.80644226,"long":18.19129372,"kod_obce":"505854","name":"Bobot"},{"lat":48.83180237,"long":17.83877754,"kod_obce":"505871","name":"Bošáca"},{"lat":48.67279434,"long":17.85370445,"kod_obce":"505889","name":"Brunovce"},{"lat":48.78731537,"long":17.77056503,"kod_obce":"505897","name":"Bzince pod Javorinou"},{"lat":48.71215439,"long":17.78712463,"kod_obce":"505901","name":"Čachtice"},{"lat":48.68920135,"long":17.78055954,"kod_obce":"505919","name":"Častkovce"},{"lat":48.91313553,"long":18.29732323,"kod_obce":"505935","name":"Dolná Poruba"},{"lat":48.95860291,"long":18.03500557,"kod_obce":"505943","name":"Dolná Súča"},{"lat":48.79873276,"long":17.82176399,"kod_obce":"505951","name":"Dolné Srnie"},{"lat":48.89490509,"long":17.95736885,"kod_obce":"505960","name":"Drietoma"},{"lat":48.76213074,"long":18.10872269,"kod_obce":"505978","name":"Dubodiel"},{"lat":48.72124863,"long":17.89231682,"kod_obce":"505994","name":"Hôrka nad Váhom"},{"lat":48.65593338,"long":17.84267616,"kod_obce":"506001","name":"Horná Streda"},{"lat":48.97217941,"long":17.97862244,"kod_obce":"506010","name":"Horná Súča"},{"lat":48.77929306,"long":18.1983242,"kod_obce":"506028","name":"Horňany"},{"lat":48.99188614,"long":18.10110092,"kod_obce":"506036","name":"Horné Srnie"},{"lat":48.93548965,"long":18.03917313,"kod_obce":"506044","name":"Hrabovka"},{"lat":48.6981163,"long":17.88813782,"kod_obce":"506052","name":"Hrádok"},{"lat":48.71392441,"long":17.72780609,"kod_obce":"506061","name":"Hrachovište"},{"lat":48.75056839,"long":17.66165352,"kod_obce":"506079","name":"Hrašné"},{"lat":48.86793137,"long":17.94456863,"kod_obce":"506087","name":"Chocholná - Velčice"},{"lat":48.83035278,"long":17.90463448,"kod_obce":"506095","name":"Ivanovce"},{"lat":48.7626915,"long":17.93126488,"kod_obce":"506109","name":"Kalnica"},{"lat":48.74383545,"long":17.88694382,"kod_obce":"506125","name":"Kočovce"},{"lat":48.87704849,"long":17.96826935,"kod_obce":"506133","name":"Kostolná - Záriečie"},{"lat":48.73623276,"long":17.70849609,"kod_obce":"506141","name":"Kostolné"},{"lat":48.70078659,"long":17.68626213,"kod_obce":"506150","name":"Krajné"},{"lat":48.82229233,"long":17.94146919,"kod_obce":"506168","name":"Krivosúd - Bodovka"},{"lat":48.78378296,"long":17.73591614,"kod_obce":"506184","name":"Lubina"},{"lat":48.65698624,"long":17.8785038,"kod_obce":"506206","name":"Lúka"},{"lat":48.83399582,"long":18.06193161,"kod_obce":"506231","name":"Mníchova Lehota"},{"lat":48.6421051,"long":17.89773369,"kod_obce":"506249","name":"Modrová"},{"lat":48.64889908,"long":17.88163376,"kod_obce":"506257","name":"Modrovka"},{"lat":48.81983185,"long":17.79514503,"kod_obce":"506265","name":"Moravské Lieskové"},{"lat":48.83098984,"long":18.18586731,"kod_obce":"506273","name":"Motešice"},{"lat":48.82226181,"long":18.1532402,"kod_obce":"506290","name":"Neporadza"},{"lat":48.87825012,"long":17.79559517,"kod_obce":"506303","name":"Nová Bošáca"},{"lat":48.65792084,"long":17.98253822,"kod_obce":"506311","name":"Nová Lehota"},{"lat":48.65344238,"long":17.76428604,"kod_obce":"506346","name":"Očkov"},{"lat":48.90146255,"long":18.22487831,"kod_obce":"506354","name":"Omšenie"},{"lat":48.85868454,"long":17.97678566,"kod_obce":"506371","name":"Opatovce"},{"lat":48.64898682,"long":17.80274773,"kod_obce":"506401","name":"Pobedim"},{"lat":48.68199158,"long":17.66914368,"kod_obce":"506419","name":"Podkylava"},{"lat":48.67769623,"long":17.77521133,"kod_obce":"506427","name":"Podolie"},{"lat":48.68889236,"long":17.84788132,"kod_obce":"506435","name":"Potvorice"},{"lat":48.7136879,"long":17.8427906,"kod_obce":"506443","name":"Považany"},{"lat":48.77888489,"long":17.99154091,"kod_obce":"506478","name":"Selec"},{"lat":48.86330032,"long":18.0855732,"kod_obce":"506508","name":"Soblahov"},{"lat":48.65275955,"long":17.95022964,"kod_obce":"506516","name":"Stará Lehota"},{"lat":48.7859993,"long":18.16350746,"kod_obce":"506532","name":"Svinná"},{"lat":48.82017517,"long":17.88192558,"kod_obce":"506541","name":"Štvrtok"},{"lat":48.93322372,"long":18.11794281,"kod_obce":"506559","name":"Trenčianska Teplá"},{"lat":48.85034943,"long":18.01846886,"kod_obce":"506567","name":"Trenčianska Turná"},{"lat":48.80258942,"long":17.8580761,"kod_obce":"506583","name":"Trenčianske Bohuslavice"},{"lat":48.80136871,"long":18.1116848,"kod_obce":"506591","name":"Trenčianske Jastrabie"},{"lat":48.80892181,"long":18.112854,"kod_obce":"506605","name":"Trenčianske Mitice"},{"lat":48.7377739,"long":17.72258949,"kod_obce":"506630","name":"Vaďovce"},{"lat":48.77009583,"long":18.13996315,"kod_obce":"506648","name":"Veľká Hradná"},{"lat":48.8524971,"long":17.98307037,"kod_obce":"506656","name":"Veľké Bierovce"},{"lat":48.72590637,"long":17.75286102,"kod_obce":"506672","name":"Višňové"},{"lat":48.50402832,"long":17.48138618,"kod_obce":"506788","name":"Bíňovce"},{"lat":48.42946625,"long":17.54582977,"kod_obce":"506796","name":"Bohdanovce nad Trnavou"},{"lat":48.39104843,"long":17.79808998,"kod_obce":"506800","name":"Bojničky"},{"lat":48.46570206,"long":17.49384689,"kod_obce":"506818","name":"Boleráz"},{"lat":48.38714981,"long":17.44567871,"kod_obce":"506826","name":"Borová"},{"lat":48.57379913,"long":17.74586296,"kod_obce":"506834","name":"Borovce"},{"lat":48.39004898,"long":17.68977737,"kod_obce":"506842","name":"Brestovany"},{"lat":48.41903305,"long":17.69924164,"kod_obce":"506851","name":"Bučany"},{"lat":48.54203033,"long":17.39530182,"kod_obce":"506869","name":"Buková"},{"lat":48.31338501,"long":17.49062347,"kod_obce":"506877","name":"Cífer"},{"lat":48.45946884,"long":17.75564003,"kod_obce":"506885","name":"Červeník"},{"lat":48.54727936,"long":17.59643745,"kod_obce":"506893","name":"Dechtice"},{"lat":48.59925079,"long":17.53753281,"kod_obce":"506915","name":"Dobrá Voda"},{"lat":48.48328781,"long":17.54990005,"kod_obce":"506923","name":"Dolná Krupá"},{"lat":48.49440002,"long":17.60614395,"kod_obce":"506931","name":"Dolné Dubové"},{"lat":48.43927765,"long":17.42917824,"kod_obce":"506940","name":"Dolné Orešany"},{"lat":48.46610641,"long":17.91306496,"kod_obce":"506958","name":"Dolné Otrokovce"},{"lat":48.44036102,"long":17.89020348,"kod_obce":"506966","name":"Dolné Trhovište"},{"lat":48.57715607,"long":17.6423912,"kod_obce":"506982","name":"Dolný Lopašov"},{"lat":48.51753235,"long":17.80139732,"kod_obce":"506991","name":"Drahovce"},{"lat":48.52881622,"long":17.73103523,"kod_obce":"507008","name":"Dubovany"},{"lat":48.35638428,"long":17.7970295,"kod_obce":"507024","name":"Dvorníky"},{"lat":48.51333237,"long":17.52791786,"kod_obce":"507041","name":"Horná Krupá"},{"lat":48.52029419,"long":17.56361771,"kod_obce":"507059","name":"Horné Dubové"},{"lat":48.46628952,"long":17.43958092,"kod_obce":"507067","name":"Horné Orešany"},{"lat":48.4901123,"long":17.88176155,"kod_obce":"507075","name":"Horné Otrokovce"},{"lat":48.56970215,"long":17.62371063,"kod_obce":"507121","name":"Chtelnica"},{"lat":48.50754929,"long":17.8297081,"kod_obce":"507130","name":"Jalšové"},{"lat":48.47849274,"long":17.64570236,"kod_obce":"507156","name":"Jaslovské Bohunice"},{"lat":48.52595901,"long":17.61040688,"kod_obce":"507164","name":"Kátlovce"},{"lat":48.38879395,"long":17.8735199,"kod_obce":"507172","name":"Kľačany"},{"lat":48.60139084,"long":17.660923,"kod_obce":"507199","name":"Kočín - Lančár"},{"lat":48.4745903,"long":17.80883217,"kod_obce":"507202","name":"Koplotovce"},{"lat":48.42486572,"long":17.46380806,"kod_obce":"507211","name":"Košolná"},{"lat":48.61103058,"long":17.75619316,"kod_obce":"507229","name":"Krakovany"},{"lat":48.47832489,"long":17.78149223,"kod_obce":"507288","name":"Madunice"},{"lat":48.28327942,"long":17.63125992,"kod_obce":"507296","name":"Majcichov"},{"lat":49.09359741,"long":19.40832138,"kod_obce":"507300","name":"Ivachnová"},{"lat":48.45054626,"long":17.67546272,"kod_obce":"507318","name":"Malženice"},{"lat":48.46347809,"long":17.94675446,"kod_obce":"507326","name":"Merašice"},{"lat":48.59892273,"long":17.86146736,"kod_obce":"507342","name":"Moravany nad Váhom"},{"lat":48.53356552,"long":17.53669739,"kod_obce":"507351","name":"Naháč"},{"lat":48.53582764,"long":17.65252686,"kod_obce":"507369","name":"Nižná"},{"lat":48.62958527,"long":17.76743126,"kod_obce":"507385","name":"Ostrov"},{"lat":49.11898804,"long":19.71726799,"kod_obce":"507393","name":"Konská"},{"lat":49.10964584,"long":19.38070107,"kod_obce":"507407","name":"Turík"},{"lat":48.42700195,"long":17.87840652,"kod_obce":"507415","name":"Pastuchov"},{"lat":48.48311234,"long":17.71977806,"kod_obce":"507431","name":"Pečeňady"},{"lat":48.65130234,"long":17.68795967,"kod_obce":"507466","name":"Prašník"},{"lat":48.55973816,"long":17.7376976,"kod_obce":"507482","name":"Rakovice"},{"lat":48.56182861,"long":17.83893394,"kod_obce":"507491","name":"Ratnovce"},{"lat":48.37284088,"long":17.48914146,"kod_obce":"507512","name":"Ružindol"},{"lat":48.37009048,"long":17.85507774,"kod_obce":"507521","name":"Sasinkovo"},{"lat":48.35779572,"long":17.7382679,"kod_obce":"507539","name":"Siladice"},{"lat":48.50555038,"long":17.43081665,"kod_obce":"507555","name":"Smolenice"},{"lat":48.53654861,"long":17.84452057,"kod_obce":"507563","name":"Sokolovce"},{"lat":48.40988922,"long":17.48986816,"kod_obce":"507571","name":"Suchá nad Parnou"},{"lat":48.43969345,"long":17.61046982,"kod_obce":"507601","name":"Špačince"},{"lat":48.33286667,"long":17.71738815,"kod_obce":"507636","name":"Šúrovce"},{"lat":48.43930054,"long":17.70954704,"kod_obce":"507661","name":"Trakovice"},{"lat":48.59804535,"long":17.75263786,"kod_obce":"507679","name":"Trebatice"},{"lat":48.52719116,"long":17.46318245,"kod_obce":"507687","name":"Trstín"},{"lat":48.51047516,"long":17.72276115,"kod_obce":"507709","name":"Veľké Kostoľany"},{"lat":48.54813385,"long":17.73306274,"kod_obce":"507725","name":"Veselé"},{"lat":48.27732849,"long":17.55884171,"kod_obce":"507741","name":"Voderady"},{"lat":48.35190582,"long":17.67301178,"kod_obce":"507768","name":"Zavar"},{"lat":48.33301163,"long":17.59590721,"kod_obce":"507776","name":"Zeleneč"},{"lat":48.45893478,"long":17.71662331,"kod_obce":"507792","name":"Žlkovce"},{"lat":48.30820847,"long":17.44474602,"kod_obce":"507806","name":"Báhoň"},{"lat":48.19885635,"long":17.30055046,"kod_obce":"507814","name":"Bernolákovo"},{"lat":48.26626205,"long":17.41965485,"kod_obce":"507822","name":"Blatné"},{"lat":48.26239395,"long":17.08614922,"kod_obce":"507831","name":"Borinka"},{"lat":48.35646439,"long":17.4100647,"kod_obce":"507849","name":"Budmerice"},{"lat":48.40018082,"long":17.35760498,"kod_obce":"507857","name":"Častá"},{"lat":48.2700119,"long":17.47601128,"kod_obce":"507865","name":"Čataj"},{"lat":48.41511917,"long":17.37844467,"kod_obce":"507873","name":"Doľany"},{"lat":48.36773682,"long":17.34136963,"kod_obce":"507881","name":"Dubová"},{"lat":48.46608353,"long":16.92325401,"kod_obce":"507890","name":"Gajary"},{"lat":48.03798676,"long":17.25207901,"kod_obce":"507903","name":"Hamuliakovo"},{"lat":48.22727966,"long":17.29024315,"kod_obce":"507911","name":"Chorvátsky Grob"},{"lat":48.18818665,"long":17.25722885,"kod_obce":"507938","name":"Ivanka pri Dunaji"},{"lat":48.33230591,"long":17.44958496,"kod_obce":"507946","name":"Jablonec"},{"lat":48.34849548,"long":17.09644508,"kod_obce":"507954","name":"Jablonové"},{"lat":48.41308594,"long":16.92733955,"kod_obce":"507962","name":"Jakubov"},{"lat":48.05893326,"long":17.25219536,"kod_obce":"507997","name":"Kalinkovo"},{"lat":48.44670868,"long":16.98682213,"kod_obce":"508012","name":"Kostolište"},{"lat":48.40658951,"long":17.1553688,"kod_obce":"508021","name":"Kuchyňa"},{"lat":48.3654213,"long":16.97226906,"kod_obce":"508039","name":"Láb"},{"lat":48.28856277,"long":17.22256279,"kod_obce":"508047","name":"Limbach"},{"lat":48.33242035,"long":17.04294205,"kod_obce":"508055","name":"Lozorno"},{"lat":48.15774536,"long":17.29895973,"kod_obce":"508071","name":"Malinovo"},{"lat":48.24925613,"long":17.06209755,"kod_obce":"508080","name":"Marianka"},{"lat":48.10452652,"long":17.29913521,"kod_obce":"508098","name":"Miloslavov"},{"lat":48.14085388,"long":17.27207184,"kod_obce":"508110","name":"Most pri Bratislave"},{"lat":48.19106293,"long":17.36193275,"kod_obce":"508136","name":"Nová Dedinka"},{"lat":48.36656952,"long":17.14653587,"kod_obce":"508161","name":"Pernek"},{"lat":48.39089203,"long":17.33244514,"kod_obce":"508187","name":"Píla"},{"lat":48.37538528,"long":16.99699593,"kod_obce":"508195","name":"Plavecký Štvrtok"},{"lat":48.09773254,"long":17.23528481,"kod_obce":"508209","name":"Rovinka"},{"lat":48.25601959,"long":17.27797127,"kod_obce":"508225","name":"Slovenský Grob"},{"lat":48.4066925,"long":16.85674286,"kod_obce":"508241","name":"Suchohrad"},{"lat":48.29808426,"long":17.34549713,"kod_obce":"508250","name":"Šenkvice"},{"lat":48.38457489,"long":17.39746284,"kod_obce":"508268","name":"Štefanová"},{"lat":48.14241028,"long":17.33665276,"kod_obce":"508276","name":"Tomášov"},{"lat":48.1903038,"long":17.39177513,"kod_obce":"508284","name":"Tureň"},{"lat":48.21425629,"long":17.36057091,"kod_obce":"508292","name":"Veľký Biel"},{"lat":48.27222824,"long":17.30125618,"kod_obce":"508306","name":"Viničné"},{"lat":48.30952072,"long":17.28756332,"kod_obce":"508314","name":"Vinosady"},{"lat":48.33457184,"long":17.3952961,"kod_obce":"508322","name":"Vištuk"},{"lat":48.15805435,"long":17.36759949,"kod_obce":"508331","name":"Vlky"},{"lat":48.32973099,"long":16.91184044,"kod_obce":"508349","name":"Vysoká pri Morave"},{"lat":48.38145065,"long":16.84947014,"kod_obce":"508365","name":"Záhorská Ves"},{"lat":48.31745911,"long":16.98288727,"kod_obce":"508381","name":"Zohor"},{"lat":48.85679626,"long":19.80798912,"kod_obce":"508446","name":"Bacúch"},{"lat":48.66557312,"long":19.12095642,"kod_obce":"508454","name":"Badín"},{"lat":48.82896042,"long":19.7574749,"kod_obce":"508462","name":"Beňuš"},{"lat":48.81372833,"long":19.19553566,"kod_obce":"508471","name":"Baláže"},{"lat":48.83992767,"long":19.74983025,"kod_obce":"508489","name":"Braväcovo"},{"lat":48.66065979,"long":19.24740791,"kod_obce":"508519","name":"Čerín"},{"lat":48.74715424,"long":19.65601158,"kod_obce":"508527","name":"Čierny Balog"},{"lat":48.83486938,"long":19.50577927,"kod_obce":"508535","name":"Dolná Lehota"},{"lat":48.67284012,"long":19.22108841,"kod_obce":"508543","name":"Dolná Mičiná"},{"lat":48.80859756,"long":19.05376434,"kod_obce":"508551","name":"Dolný Harmanec"},{"lat":48.88012314,"long":19.22245789,"kod_obce":"508560","name":"Donovaly"},{"lat":48.64866638,"long":19.65577698,"kod_obce":"508578","name":"Drábsko"},{"lat":48.6777916,"long":19.27179337,"kod_obce":"508586","name":"Dúbravica"},{"lat":48.79499435,"long":19.07844543,"kod_obce":"508594","name":"Harmanec"},{"lat":48.86065674,"long":19.96936226,"kod_obce":"508608","name":"Heľpa"},{"lat":48.80938721,"long":19.31593132,"kod_obce":"508616","name":"Hiadeľ"},{"lat":48.8394928,"long":19.5476284,"kod_obce":"508624","name":"Horná Lehota"},{"lat":48.69800186,"long":19.21152687,"kod_obce":"508632","name":"Horná Mičiná"},{"lat":48.70003891,"long":19.08480453,"kod_obce":"508641","name":"Horné Pršany"},{"lat":48.6554451,"long":19.31227112,"kod_obce":"508659","name":"Hrochoť"},{"lat":48.79475403,"long":19.58198166,"kod_obce":"508667","name":"Hronec"},{"lat":48.79021072,"long":19.38910484,"kod_obce":"508675","name":"Brusno"},{"lat":48.8900032,"long":19.68859673,"kod_obce":"508691","name":"Jarabá"},{"lat":48.83625412,"long":19.45823288,"kod_obce":"508705","name":"Jasenie"},{"lat":48.77177811,"long":19.02223206,"kod_obce":"508713","name":"Kordíky"},{"lat":48.73498154,"long":19.03674507,"kod_obce":"508721","name":"Králiky"},{"lat":48.64156342,"long":19.648592,"kod_obce":"508730","name":"Lom nad Rimavicou"},{"lat":48.74646378,"long":19.36282921,"kod_obce":"508748","name":"Ľubietová"},{"lat":48.78335571,"long":19.31947136,"kod_obce":"508756","name":"Lučatín"},{"lat":48.79166031,"long":19.35222244,"kod_obce":"508764","name":"Medzibrod"},{"lat":48.76252747,"long":19.77967262,"kod_obce":"508772","name":"Michalová"},{"lat":48.71046448,"long":19.22994041,"kod_obce":"508781","name":"Môlča"},{"lat":48.80719757,"long":19.29226685,"kod_obce":"508799","name":"Moštenica"},{"lat":48.86045074,"long":19.17012787,"kod_obce":"508802","name":"Motyčky"},{"lat":48.8523674,"long":19.63230515,"kod_obce":"508811","name":"Mýto pod Ďumbierom"},{"lat":48.81348419,"long":19.41544151,"kod_obce":"508829","name":"Nemecká"},{"lat":48.68480682,"long":19.26362419,"kod_obce":"508837","name":"Oravce"},{"lat":48.7552948,"long":19.52592278,"kod_obce":"508845","name":"Osrblie"},{"lat":48.81035614,"long":19.53886604,"kod_obce":"508853","name":"Podbrezová"},{"lat":48.799366,"long":19.25593376,"kod_obce":"508861","name":"Podkonice"},{"lat":48.8660965,"long":20.01792336,"kod_obce":"508870","name":"Pohorelá"},{"lat":48.75515747,"long":19.79909706,"kod_obce":"508888","name":"Pohronská Polhora"},{"lat":48.83751678,"long":19.37822723,"kod_obce":"508896","name":"Pohronský Bukovec"},{"lat":48.85213089,"long":19.85255814,"kod_obce":"508900","name":"Polomka"},{"lat":48.71022797,"long":19.29002762,"kod_obce":"508918","name":"Poniky"},{"lat":48.71603012,"long":19.36494827,"kod_obce":"508926","name":"Povrazník"},{"lat":48.81441116,"long":19.46248627,"kod_obce":"508934","name":"Predajná"},{"lat":48.77910614,"long":19.23179245,"kod_obce":"508942","name":"Priechod"},{"lat":48.82013321,"long":19.40133858,"kod_obce":"508951","name":"Ráztoka"},{"lat":48.7579689,"long":19.07501984,"kod_obce":"508969","name":"Riečka"},{"lat":48.64968491,"long":19.2431221,"kod_obce":"508977","name":"Sebedín - Bečov"},{"lat":48.76480865,"long":19.20668983,"kod_obce":"508985","name":"Selce"},{"lat":48.65753937,"long":19.64697456,"kod_obce":"508993","name":"Sihla"},{"lat":48.76544952,"long":19.27578545,"kod_obce":"509001","name":"Slovenská Ľupča"},{"lat":48.83904648,"long":19.11485291,"kod_obce":"509019","name":"Staré Hory"},{"lat":48.72377396,"long":19.39302826,"kod_obce":"509027","name":"Strelníky"},{"lat":48.80735779,"long":19.13389015,"kod_obce":"509035","name":"Špania Dolina"},{"lat":48.84007263,"long":20.12985229,"kod_obce":"509043","name":"Šumiac"},{"lat":48.85169983,"long":20.18844414,"kod_obce":"509051","name":"Telgárt"},{"lat":48.74604797,"long":19.06994057,"kod_obce":"509060","name":"Tajov"},{"lat":48.81505203,"long":19.57440567,"kod_obce":"509086","name":"Valaská"},{"lat":48.83454895,"long":20.06843567,"kod_obce":"509094","name":"Vaľkovňa"},{"lat":48.85029602,"long":19.91142845,"kod_obce":"509124","name":"Závadka nad Hronom"},{"lat":49.49427795,"long":18.8194809,"kod_obce":"509159","name":"Čierne"},{"lat":49.38966751,"long":18.64113235,"kod_obce":"509167","name":"Dlhá nad Kysucou"},{"lat":49.26987076,"long":18.84565163,"kod_obce":"509175","name":"Dolný Vadičov"},{"lat":49.36061859,"long":18.82157516,"kod_obce":"509183","name":"Dunajov"},{"lat":49.26576996,"long":18.8807373,"kod_obce":"509205","name":"Horný Vadičov"},{"lat":49.4517746,"long":18.57108879,"kod_obce":"509213","name":"Klokočov"},{"lat":49.35728836,"long":18.89284706,"kod_obce":"509221","name":"Klubina"},{"lat":49.41371155,"long":18.54139519,"kod_obce":"509230","name":"Korňa"},{"lat":49.33746338,"long":18.81138802,"kod_obce":"509264","name":"Kysucký Lieskovec"},{"lat":49.33464432,"long":18.86814308,"kod_obce":"509272","name":"Lodno"},{"lat":49.27847672,"long":18.82946968,"kod_obce":"509281","name":"Lopušné Pažite"},{"lat":49.37057877,"long":18.48014832,"kod_obce":"509299","name":"Makov"},{"lat":49.31243515,"long":18.74459457,"kod_obce":"509302","name":"Nesluša"},{"lat":49.34444809,"long":19.00746918,"kod_obce":"509311","name":"Nová Bystrica"},{"lat":49.34799194,"long":18.79261017,"kod_obce":"509329","name":"Ochodnica"},{"lat":49.42300415,"long":18.67652512,"kod_obce":"509337","name":"Olešná"},{"lat":49.43671417,"long":18.88298607,"kod_obce":"509345","name":"Oščadnica"},{"lat":49.41496658,"long":18.6698513,"kod_obce":"509361","name":"Podvysoká"},{"lat":49.31046295,"long":18.81200981,"kod_obce":"509370","name":"Povina"},{"lat":49.32772827,"long":18.94207573,"kod_obce":"509396","name":"Radôstka"},{"lat":49.44259644,"long":18.73386192,"kod_obce":"509400","name":"Raková"},{"lat":49.28712463,"long":18.74354172,"kod_obce":"509426","name":"Rudina"},{"lat":49.28076935,"long":18.75892639,"kod_obce":"509434","name":"Rudinka"},{"lat":49.31436157,"long":18.71955109,"kod_obce":"509442","name":"Rudinská"},{"lat":49.49728012,"long":18.89789772,"kod_obce":"509451","name":"Skalité"},{"lat":49.25755692,"long":18.79232407,"kod_obce":"509469","name":"Snežnica"},{"lat":49.34675217,"long":18.93763351,"kod_obce":"509477","name":"Stará Bystrica"},{"lat":49.42171478,"long":18.69528961,"kod_obce":"509485","name":"Staškov"},{"lat":49.48104477,"long":18.79203987,"kod_obce":"509493","name":"Svrčinovec"},{"lat":49.38025284,"long":18.54816055,"kod_obce":"509515","name":"Vysoká nad Kysucou"},{"lat":49.40565109,"long":18.73158646,"kod_obce":"509523","name":"Zákopčie"},{"lat":49.38063431,"long":18.88509941,"kod_obce":"509531","name":"Zborov nad Bystricou"},{"lat":49.33234024,"long":19.38235664,"kod_obce":"509558","name":"Babín"},{"lat":49.43096924,"long":19.3414917,"kod_obce":"509566","name":"Beňadovo"},{"lat":49.42775345,"long":19.54294014,"kod_obce":"509582","name":"Bobrov"},{"lat":49.38519287,"long":19.38571739,"kod_obce":"509591","name":"Breza"},{"lat":49.34082031,"long":19.65184593,"kod_obce":"509604","name":"Brezovica"},{"lat":49.26630402,"long":19.44685936,"kod_obce":"509639","name":"Dlhá nad Oravou"},{"lat":49.27383804,"long":19.60616684,"kod_obce":"509655","name":"Habovka"},{"lat":49.36910248,"long":19.75675964,"kod_obce":"509663","name":"Hladovka"},{"lat":49.25481796,"long":19.40468979,"kod_obce":"509671","name":"Horná Lehota"},{"lat":49.32468414,"long":19.34932327,"kod_obce":"509680","name":"Hruštín"},{"lat":49.22972488,"long":19.46432304,"kod_obce":"509698","name":"Chlebnice"},{"lat":49.21177673,"long":19.22154427,"kod_obce":"509701","name":"Istebné"},{"lat":49.17607117,"long":19.29466629,"kod_obce":"509710","name":"Jasenová"},{"lat":49.44292831,"long":19.4813633,"kod_obce":"509728","name":"Klin"},{"lat":49.15139389,"long":19.12716103,"kod_obce":"509744","name":"Kraľovany"},{"lat":49.28310013,"long":19.48142815,"kod_obce":"509761","name":"Krivá"},{"lat":49.37729645,"long":19.34060287,"kod_obce":"509779","name":"Krušetnica"},{"lat":49.1890831,"long":19.35154915,"kod_obce":"509787","name":"Leštiny"},{"lat":49.36118698,"long":19.67605209,"kod_obce":"509795","name":"Liesek"},{"lat":49.36618042,"long":19.41069031,"kod_obce":"509809","name":"Lokca"},{"lat":49.36186981,"long":19.30350113,"kod_obce":"509817","name":"Lomná"},{"lat":49.18674469,"long":19.43127251,"kod_obce":"509825","name":"Malatiná"},{"lat":49.23390961,"long":19.34355736,"kod_obce":"509833","name":"Medzibrodie nad Oravou"},{"lat":49.460289,"long":19.32441711,"kod_obce":"509850","name":"Mútne"},{"lat":49.31083298,"long":19.52235413,"kod_obce":"509876","name":"Nižná"},{"lat":49.42735672,"long":19.27009392,"kod_obce":"509884","name":"Novoť"},{"lat":49.3883934,"long":19.43580818,"kod_obce":"509892","name":"Oravská Jasenica"},{"lat":49.36917496,"long":19.18601418,"kod_obce":"509906","name":"Oravská Lesná"},{"lat":49.51973724,"long":19.44758606,"kod_obce":"509914","name":"Oravská Polhora"},{"lat":49.19434738,"long":19.26712799,"kod_obce":"509922","name":"Oravská Poruba"},{"lat":49.4717598,"long":19.38175201,"kod_obce":"509931","name":"Oravské Veselé"},{"lat":49.28591919,"long":19.55233574,"kod_obce":"509949","name":"Oravský Biely Potok"},{"lat":49.26115799,"long":19.35788918,"kod_obce":"509957","name":"Oravský Podzámok"},{"lat":49.18452454,"long":19.38424683,"kod_obce":"509965","name":"Osádka"},{"lat":49.19578934,"long":19.19996452,"kod_obce":"509973","name":"Párnica"},{"lat":49.30685425,"long":19.48461533,"kod_obce":"509981","name":"Podbiel"},{"lat":49.20211792,"long":19.39458656,"kod_obce":"509990","name":"Pokryváč"},{"lat":49.22148132,"long":19.40492821,"kod_obce":"510009","name":"Pribiš"},{"lat":49.21823883,"long":19.37911797,"kod_obce":"510017","name":"Pucov"},{"lat":49.48131561,"long":19.48027039,"kod_obce":"510025","name":"Rabča"},{"lat":49.50379944,"long":19.51031494,"kod_obce":"510033","name":"Rabčice"},{"lat":49.26140594,"long":19.43094063,"kod_obce":"510041","name":"Sedliacka Dubová"},{"lat":49.50655365,"long":19.41656494,"kod_obce":"510050","name":"Sihelné"},{"lat":49.3663063,"long":19.7899704,"kod_obce":"510076","name":"Suchá Hora"},{"lat":49.36149597,"long":19.54566574,"kod_obce":"510084","name":"Štefanov nad Oravou"},{"lat":49.37305069,"long":19.44921494,"kod_obce":"510092","name":"Ťapešovo"},{"lat":49.34886932,"long":19.3840065,"kod_obce":"510149","name":"Vasiľov"},{"lat":49.38449478,"long":19.46946526,"kod_obce":"510157","name":"Vavrečka"},{"lat":49.2052269,"long":19.24509811,"kod_obce":"510165","name":"Veličná"},{"lat":49.35503769,"long":19.72960281,"kod_obce":"510173","name":"Vitanová"},{"lat":49.18213272,"long":19.31622314,"kod_obce":"510181","name":"Vyšný Kubín"},{"lat":49.3208046,"long":19.60704231,"kod_obce":"510190","name":"Zábiedovo"},{"lat":49.38523102,"long":19.30439377,"kod_obce":"510203","name":"Zákamenné"},{"lat":49.27561188,"long":19.1543293,"kod_obce":"510211","name":"Zázrivá"},{"lat":49.2587471,"long":19.61279869,"kod_obce":"510238","name":"Zuberec"},{"lat":49.44554901,"long":19.51113319,"kod_obce":"510246","name":"Zubrohlava"},{"lat":49.17848206,"long":19.21217155,"kod_obce":"510254","name":"Žaškov"},{"lat":49.0757637,"long":19.68063736,"kod_obce":"510271","name":"Beňadiková"},{"lat":49.1002121,"long":19.43472099,"kod_obce":"510301","name":"Bešeňová"},{"lat":49.14362717,"long":19.60459137,"kod_obce":"510319","name":"Bobrovček"},{"lat":49.1210289,"long":19.61411095,"kod_obce":"510327","name":"Bobrovec"},{"lat":49.11536026,"long":19.47718811,"kod_obce":"510335","name":"Bobrovník"},{"lat":49.13468933,"long":19.47086716,"kod_obce":"510351","name":"Bukovina"},{"lat":48.97160339,"long":19.58073425,"kod_obce":"510386","name":"Demänovská Dolina"},{"lat":49.04045868,"long":19.49434853,"kod_obce":"510408","name":"Dúbrava"},{"lat":49.07198715,"long":19.53310013,"kod_obce":"510416","name":"Galovany"},{"lat":49.0615387,"long":19.50405121,"kod_obce":"510424","name":"Gôtovany"},{"lat":49.11831665,"long":19.18862152,"kod_obce":"510441","name":"Hubová"},{"lat":49.21921158,"long":19.56603813,"kod_obce":"510459","name":"Huty"},{"lat":49.04450989,"long":19.82895088,"kod_obce":"510467","name":"Hybe"},{"lat":49.10290909,"long":19.72327995,"kod_obce":"510505","name":"Jakubovany"},{"lat":49.13624191,"long":19.62954712,"kod_obce":"510513","name":"Jalovec"},{"lat":49.07159805,"long":19.709692,"kod_obce":"510521","name":"Jamník"},{"lat":49.12537003,"long":19.41516113,"kod_obce":"510530","name":"Kalameny"},{"lat":49.14714813,"long":19.24458885,"kod_obce":"510548","name":"Komjatná"},{"lat":49.02148819,"long":19.79398155,"kod_obce":"510564","name":"Kráľova Lehota"},{"lat":49.16836548,"long":19.54364204,"kod_obce":"510572","name":"Kvačany"},{"lat":49.02863693,"long":19.54419518,"kod_obce":"510581","name":"Lazisko"},{"lat":49.09201813,"long":19.3100338,"kod_obce":"510599","name":"Likavka"},{"lat":49.14675903,"long":19.46884346,"kod_obce":"510602","name":"Liptovská Anna"},{"lat":49.09037399,"long":19.81902122,"kod_obce":"510611","name":"Liptovská Kokava"},{"lat":48.94038773,"long":19.32257462,"kod_obce":"510629","name":"Liptovská Lúžna"},{"lat":48.9495163,"long":19.26192856,"kod_obce":"510637","name":"Liptovská Osada"},{"lat":49.14571762,"long":19.51408768,"kod_obce":"510653","name":"Liptovská Sielnica"},{"lat":49.05252075,"long":19.35705185,"kod_obce":"510661","name":"Liptovská Štiavnica"},{"lat":49.10261154,"long":19.40936279,"kod_obce":"510670","name":"Liptovská Teplá"},{"lat":49.13653946,"long":19.57793427,"kod_obce":"510688","name":"Liptovské Beharovce"},{"lat":49.03256226,"long":19.47469902,"kod_obce":"510696","name":"Liptovské Kľačany"},{"lat":49.15259933,"long":19.54681206,"kod_obce":"510700","name":"Liptovské Matiašovce"},{"lat":48.91905975,"long":19.17760658,"kod_obce":"510718","name":"Liptovské Revúce"},{"lat":49.04816055,"long":19.6778965,"kod_obce":"510734","name":"Liptovský Ján"},{"lat":49.09620285,"long":19.43972588,"kod_obce":"510742","name":"Liptovský Michal"},{"lat":49.09725952,"long":19.71311188,"kod_obce":"510751","name":"Liptovský Ondrej"},{"lat":49.12126923,"long":19.54717255,"kod_obce":"510777","name":"Liptovský Trnovec"},{"lat":49.08797073,"long":19.35131836,"kod_obce":"510785","name":"Lisková"},{"lat":49.05289078,"long":19.47945786,"kod_obce":"510793","name":"Ľubeľa"},{"lat":49.12197495,"long":19.1699791,"kod_obce":"510807","name":"Ľubochňa"},{"lat":49.12828445,"long":19.40368843,"kod_obce":"510815","name":"Lúčky"},{"lat":49.04653168,"long":19.33112526,"kod_obce":"510823","name":"Ludrová"},{"lat":49.06808472,"long":19.45888138,"kod_obce":"510831","name":"Malatíny"},{"lat":49.22732925,"long":19.53284645,"kod_obce":"510840","name":"Malé Borové"},{"lat":48.98143005,"long":19.76739502,"kod_obce":"510858","name":"Malužiná"},{"lat":49.09183884,"long":19.33620834,"kod_obce":"510866","name":"Martinček"},{"lat":48.94857407,"long":19.76860428,"kod_obce":"510874","name":"Nižná Boca"},{"lat":49.06513214,"long":19.43646049,"kod_obce":"510904","name":"Partizánska Ľupča"},{"lat":49.03476334,"long":19.56241417,"kod_obce":"510912","name":"Pavčina Lehota"},{"lat":49.12927246,"long":19.58428574,"kod_obce":"510921","name":"Pavlova Ves"},{"lat":49.05425262,"long":19.69333458,"kod_obce":"510947","name":"Podtureň"},{"lat":49.11332321,"long":19.44830704,"kod_obce":"510955","name":"Potok"},{"lat":49.09758377,"long":19.79630852,"kod_obce":"510963","name":"Pribylina"},{"lat":49.14581299,"long":19.50168037,"kod_obce":"510971","name":"Prosiek"},{"lat":49.06095505,"long":19.38534164,"kod_obce":"511005","name":"Sliače"},{"lat":49.11938477,"long":19.65179634,"kod_obce":"511013","name":"Smrečany"},{"lat":49.14562988,"long":19.17083549,"kod_obce":"511030","name":"Stankovany"},{"lat":49.05179596,"long":19.53472137,"kod_obce":"511048","name":"Svätý Kríž"},{"lat":49.06974411,"long":19.34279633,"kod_obce":"511056","name":"Štiavnička"},{"lat":49.12506104,"long":19.19748116,"kod_obce":"511064","name":"Švošov"},{"lat":49.11224365,"long":19.61914253,"kod_obce":"511072","name":"Trstené"},{"lat":49.05838394,"long":19.68322372,"kod_obce":"511099","name":"Uhorská Ves"},{"lat":49.14055252,"long":19.29283142,"kod_obce":"511102","name":"Valaská Dubová"},{"lat":49.07030106,"long":19.75872803,"kod_obce":"511111","name":"Vavrišovo"},{"lat":49.05916595,"long":19.97953987,"kod_obce":"511129","name":"Važec"},{"lat":49.19789505,"long":19.51945305,"kod_obce":"511137","name":"Veľké Borové"},{"lat":49.1094017,"long":19.67739677,"kod_obce":"511145","name":"Veterná Poruba"},{"lat":49.0934639,"long":19.47382736,"kod_obce":"511153","name":"Vlachy"},{"lat":49.05888367,"long":19.89034271,"kod_obce":"511170","name":"Východná"},{"lat":48.9256134,"long":19.75226402,"kod_obce":"511188","name":"Vyšná Boca"},{"lat":49.05382538,"long":19.64916039,"kod_obce":"511196","name":"Závažná Poruba"},{"lat":49.13085938,"long":19.66526985,"kod_obce":"511200","name":"Žiar"},{"lat":48.41078568,"long":19.43268394,"kod_obce":"511226","name":"Ábelová"},{"lat":48.2428894,"long":19.85361862,"kod_obce":"511234","name":"Belina"},{"lat":48.3373909,"long":19.77054024,"kod_obce":"511251","name":"Boľkovce"},{"lat":48.42091751,"long":19.73849297,"kod_obce":"511269","name":"Breznička"},{"lat":48.45584106,"long":19.47574806,"kod_obce":"511277","name":"Budiná"},{"lat":48.30823898,"long":19.80099106,"kod_obce":"511293","name":"Buzitka"},{"lat":48.44705963,"long":19.64852524,"kod_obce":"511315","name":"Cinobaňa"},{"lat":48.21341705,"long":19.8146801,"kod_obce":"511323","name":"Čakanovce"},{"lat":48.24949265,"long":19.88673019,"kod_obce":"511331","name":"Čamovce"},{"lat":48.48242569,"long":19.80508614,"kod_obce":"511340","name":"České Brezovo"},{"lat":48.45049286,"long":19.53266525,"kod_obce":"511358","name":"Divín"},{"lat":48.47596741,"long":19.5653286,"kod_obce":"511366","name":"Dobroč"},{"lat":48.48540497,"long":19.57993889,"kod_obce":"511374","name":"Kotmanová"},{"lat":48.29259872,"long":19.77448273,"kod_obce":"511404","name":"Fiľakovské Kováče"},{"lat":48.35495377,"long":19.57384109,"kod_obce":"511421","name":"Halič"},{"lat":48.30809021,"long":19.75255775,"kod_obce":"511439","name":"Holiša"},{"lat":48.4913559,"long":19.72254753,"kod_obce":"511447","name":"Hradište"},{"lat":48.28215408,"long":19.60099792,"kod_obce":"511463","name":"Jelšovec"},{"lat":48.39509201,"long":19.71083069,"kod_obce":"511471","name":"Kalinovo"},{"lat":48.25777054,"long":19.65653801,"kod_obce":"511480","name":"Kalonda"},{"lat":48.57025528,"long":19.84152603,"kod_obce":"511498","name":"Kokava nad Rimavicou"},{"lat":48.51003647,"long":19.74022484,"kod_obce":"511501","name":"Krná"},{"lat":48.58026123,"long":19.63404274,"kod_obce":"511510","name":"Látky"},{"lat":48.33982849,"long":19.54264069,"kod_obce":"511528","name":"Lehôtka"},{"lat":48.37307739,"long":19.45071411,"kod_obce":"511536","name":"Lentvora"},{"lat":48.22041702,"long":19.70861053,"kod_obce":"511544","name":"Lipovany"},{"lat":48.43847656,"long":19.58943748,"kod_obce":"511552","name":"Lovinobaňa"},{"lat":48.31004715,"long":19.51667213,"kod_obce":"511561","name":"Ľuboreč"},{"lat":48.36018372,"long":19.54120445,"kod_obce":"511579","name":"Lupoč"},{"lat":48.49702072,"long":19.68046951,"kod_obce":"511595","name":"Málinec"},{"lat":48.33355713,"long":19.56363297,"kod_obce":"511609","name":"Mašková"},{"lat":48.43726349,"long":19.70544434,"kod_obce":"511617","name":"Mládzovo"},{"lat":48.24509811,"long":19.69956398,"kod_obce":"511625","name":"Mučín"},{"lat":48.4668045,"long":19.5524044,"kod_obce":"511641","name":"Mýtna"},{"lat":48.31905746,"long":19.77253151,"kod_obce":"511668","name":"Nitra nad Ipľom"},{"lat":48.36266708,"long":19.82494926,"kod_obce":"511676","name":"Nové Hony"},{"lat":48.46946335,"long":19.68606758,"kod_obce":"511684","name":"Ozdín"},{"lat":48.28271103,"long":19.65205956,"kod_obce":"511692","name":"Panické Dravce"},{"lat":48.48253632,"long":19.504076,"kod_obce":"511706","name":"Píla"},{"lat":48.3594017,"long":19.76156425,"kod_obce":"511714","name":"Pinciná"},{"lat":48.23189545,"long":19.75116158,"kod_obce":"511722","name":"Pleš"},{"lat":48.51400757,"long":19.45730209,"kod_obce":"511731","name":"Podkriváň"},{"lat":48.40398788,"long":19.60316086,"kod_obce":"511749","name":"Podrečany"},{"lat":48.40493011,"long":19.4982338,"kod_obce":"511757","name":"Polichno"},{"lat":48.36357117,"long":19.50858498,"kod_obce":"511773","name":"Praha"},{"lat":48.29964066,"long":19.79148102,"kod_obce":"511781","name":"Prša"},{"lat":48.22023392,"long":19.82825089,"kod_obce":"511790","name":"Radzovce"},{"lat":48.2730751,"long":19.68135262,"kod_obce":"511803","name":"Rapovce"},{"lat":48.24524689,"long":19.7850666,"kod_obce":"511811","name":"Ratka"},{"lat":48.4479332,"long":19.74149513,"kod_obce":"511820","name":"Rovňany"},{"lat":48.43017578,"long":19.55135155,"kod_obce":"511838","name":"Ružiná"},{"lat":48.36684036,"long":19.57420158,"kod_obce":"511846","name":"Stará Halič"},{"lat":48.30236435,"long":19.81958389,"kod_obce":"511854","name":"Šávoľ"},{"lat":48.18271255,"long":19.81837082,"kod_obce":"511862","name":"Šiatorská Bukovinka"},{"lat":48.27484131,"long":19.88012886,"kod_obce":"511871","name":"Šíd"},{"lat":48.58042526,"long":19.7444973,"kod_obce":"511889","name":"Šoltýska"},{"lat":48.23025894,"long":19.91546249,"kod_obce":"511897","name":"Šurice"},{"lat":48.41319275,"long":19.64120102,"kod_obce":"511901","name":"Točnica"},{"lat":48.37480927,"long":19.61749077,"kod_obce":"511919","name":"Tomášovce"},{"lat":48.28426743,"long":19.71502113,"kod_obce":"511927","name":"Trebeľovce"},{"lat":48.42853928,"long":19.50786972,"kod_obce":"511943","name":"Tuhár"},{"lat":48.4711113,"long":19.74946213,"kod_obce":"511978","name":"Uhorské"},{"lat":48.26327896,"long":19.61956024,"kod_obce":"511994","name":"Veľká nad Ipľom"},{"lat":48.38101578,"long":19.67504311,"kod_obce":"512001","name":"Veľká Ves"},{"lat":48.34597778,"long":19.8397274,"kod_obce":"512010","name":"Veľké Dravce"},{"lat":48.93582153,"long":18.79556084,"kod_obce":"512044","name":"Abramová"},{"lat":48.99687195,"long":18.98085022,"kod_obce":"512052","name":"Belá - Dulice"},{"lat":48.99556732,"long":18.87114334,"kod_obce":"512061","name":"Benice"},{"lat":48.9378624,"long":18.92539406,"kod_obce":"512079","name":"Blatnica"},{"lat":48.93834686,"long":18.84088516,"kod_obce":"512087","name":"Blažovce"},{"lat":48.90476608,"long":18.84954453,"kod_obce":"512095","name":"Bodorová"},{"lat":48.92780685,"long":18.83896828,"kod_obce":"512109","name":"Borcová"},{"lat":48.91739273,"long":18.73721886,"kod_obce":"512117","name":"Brieštie"},{"lat":48.8728714,"long":18.7578907,"kod_obce":"512125","name":"Budiš"},{"lat":49.05036545,"long":18.88122368,"kod_obce":"512133","name":"Bystrička"},{"lat":48.84803391,"long":18.90456581,"kod_obce":"512141","name":"Čremošné"},{"lat":48.9766655,"long":18.91338158,"kod_obce":"512150","name":"Ďanová"},{"lat":49.05093002,"long":18.96409798,"kod_obce":"512168","name":"Diaková"},{"lat":49.04051208,"long":18.96250534,"kod_obce":"512206","name":"Dolný Kalník"},{"lat":49.05680847,"long":18.95591927,"kod_obce":"512214","name":"Dražkovce"},{"lat":48.85680389,"long":18.79437447,"kod_obce":"512222","name":"Dubové"},{"lat":48.96954346,"long":18.94751167,"kod_obce":"512257","name":"Folkušová"},{"lat":48.86317825,"long":18.88580322,"kod_obce":"512265","name":"Háj"},{"lat":48.82480621,"long":18.88370705,"kod_obce":"512273","name":"Horná Štubňa"},{"lat":49.03349304,"long":18.97001266,"kod_obce":"512290","name":"Horný Kalník"},{"lat":48.91140747,"long":18.81111336,"kod_obce":"512303","name":"Ivančiná"},{"lat":48.87915039,"long":18.72451019,"kod_obce":"512311","name":"Jasenovo"},{"lat":48.9274826,"long":18.83162117,"kod_obce":"512320","name":"Jazernica"},{"lat":48.88953781,"long":18.77609253,"kod_obce":"512338","name":"Kaľamenová"},{"lat":48.96056747,"long":18.90124893,"kod_obce":"512346","name":"Karlová"},{"lat":48.97325134,"long":18.80227661,"kod_obce":"512354","name":"Kláštor pod Znievom"},{"lat":49.02803421,"long":18.90501976,"kod_obce":"512371","name":"Košťany nad Turcom"},{"lat":49.12557983,"long":19.08761215,"kod_obce":"512389","name":"Krpeľany"},{"lat":48.95680237,"long":18.87636566,"kod_obce":"512397","name":"Laskár"},{"lat":48.98019791,"long":18.85782242,"kod_obce":"512419","name":"Ležiachov"},{"lat":48.88921356,"long":18.76579666,"kod_obce":"512427","name":"Liešno"},{"lat":49.1271553,"long":18.92499733,"kod_obce":"512435","name":"Lipovec"},{"lat":48.90294647,"long":18.84069633,"kod_obce":"512443","name":"Malý Čepčín"},{"lat":48.94335175,"long":18.82930183,"kod_obce":"512451","name":"Moškovec"},{"lat":48.90953827,"long":18.88758278,"kod_obce":"512460","name":"Mošovce"},{"lat":48.98574829,"long":18.96717072,"kod_obce":"512478","name":"Necpaly"},{"lat":49.10952377,"long":19.07607079,"kod_obce":"512486","name":"Nolčovo"},{"lat":48.94306183,"long":18.80572891,"kod_obce":"512494","name":"Ondrašová"},{"lat":49.08499908,"long":19.05681992,"kod_obce":"512508","name":"Podhradie"},{"lat":48.99842834,"long":18.88156509,"kod_obce":"512524","name":"Príbovce"},{"lat":48.98906326,"long":18.87939835,"kod_obce":"512541","name":"Rakovo"},{"lat":48.88182068,"long":18.87974739,"kod_obce":"512559","name":"Rakša"},{"lat":49.13516617,"long":19.08586502,"kod_obce":"512567","name":"Ratkovo"},{"lat":48.88534164,"long":18.74687767,"kod_obce":"512575","name":"Rudno"},{"lat":49.04515839,"long":19.00341034,"kod_obce":"512583","name":"Sklabiňa"},{"lat":49.05176544,"long":19.02734184,"kod_obce":"512591","name":"Sklabinský Podzámok"},{"lat":48.78583527,"long":18.83542633,"kod_obce":"512605","name":"Sklené"},{"lat":48.97254562,"long":18.82175255,"kod_obce":"512613","name":"Slovany"},{"lat":48.90754318,"long":18.75849915,"kod_obce":"512621","name":"Slovenské Pravno"},{"lat":48.9499855,"long":18.86865616,"kod_obce":"512630","name":"Socovce"},{"lat":49.09914398,"long":18.99328995,"kod_obce":"512648","name":"Sučany"},{"lat":49.15103531,"long":19.08320999,"kod_obce":"512656","name":"Šútovo"},{"lat":49.02470016,"long":18.86130714,"kod_obce":"512664","name":"Trebostovo"},{"lat":49.01664352,"long":18.86057854,"kod_obce":"512672","name":"Trnovo"},{"lat":49.11668777,"long":19.03683662,"kod_obce":"512681","name":"Turany"},{"lat":48.75761414,"long":18.92498589,"kod_obce":"512699","name":"Turček"},{"lat":49.08563995,"long":19.02211189,"kod_obce":"512702","name":"Turčianska Štiavnička"},{"lat":49.11471558,"long":18.95101738,"kod_obce":"512711","name":"Turčianske Kľačany"},{"lat":48.95303345,"long":18.84151649,"kod_obce":"512737","name":"Turčiansky Ďur"},{"lat":49.02896118,"long":18.88952446,"kod_obce":"512753","name":"Turčiansky Peter"},{"lat":49.00358582,"long":18.84241295,"kod_obce":"512761","name":"Valča"},{"lat":48.89332199,"long":18.80970955,"kod_obce":"512788","name":"Veľký Čepčín"},{"lat":48.97101212,"long":18.69753075,"kod_obce":"512796","name":"Vrícko"},{"lat":49.03664017,"long":18.98529053,"kod_obce":"512818","name":"Záborie"},{"lat":49.02819061,"long":18.91511917,"kod_obce":"512834","name":"Žabokreky"},{"lat":49.06526566,"long":18.32729912,"kod_obce":"512851","name":"Beluša"},{"lat":48.98581696,"long":18.15717506,"kod_obce":"512885","name":"Bolešov"},{"lat":49.21393585,"long":18.42683029,"kod_obce":"512915","name":"Brvnište"},{"lat":49.08866119,"long":18.17974663,"kod_obce":"512931","name":"Červený Kameň"},{"lat":49.14534378,"long":18.29174995,"kod_obce":"512940","name":"Dohňany"},{"lat":49.08088684,"long":18.26171494,"kod_obce":"512958","name":"Dolná Breznica"},{"lat":49.20817184,"long":18.35620689,"kod_obce":"512966","name":"Dolná Mariková"},{"lat":49.04510117,"long":18.55203056,"kod_obce":"513008","name":"Domaniža"},{"lat":49.03618622,"long":18.24835777,"kod_obce":"513024","name":"Dulov"},{"lat":49.24616623,"long":18.30902863,"kod_obce":"513083","name":"Horná Mariková"},{"lat":48.94105911,"long":18.30504036,"kod_obce":"513091","name":"Horná Poruba"},{"lat":49.04499054,"long":18.25677681,"kod_obce":"513121","name":"Horovce"},{"lat":49.1797905,"long":18.45023918,"kod_obce":"513172","name":"Jasenica"},{"lat":49.12646484,"long":18.52991867,"kod_obce":"513245","name":"Kostolec"},{"lat":49.00984573,"long":18.26208115,"kod_obce":"513253","name":"Košeca"},{"lat":49.03786087,"long":18.28699493,"kod_obce":"513296","name":"Ladce"},{"lat":49.22806168,"long":18.21426582,"kod_obce":"513300","name":"Lazy pod Makytou"},{"lat":49.11024094,"long":18.21313477,"kod_obce":"513318","name":"Lednica"},{"lat":49.06886673,"long":18.28786659,"kod_obce":"513326","name":"Lednické Rovne"},{"lat":49.18803024,"long":18.23246574,"kod_obce":"513334","name":"Lúky"},{"lat":49.19729996,"long":18.19501686,"kod_obce":"513342","name":"Lysá pod Makytou"},{"lat":48.97868729,"long":18.31139565,"kod_obce":"513351","name":"Košecké Podhradie"},{"lat":49.17598343,"long":18.25883484,"kod_obce":"513377","name":"Mestečko"},{"lat":49.06504059,"long":18.20589066,"kod_obce":"513385","name":"Mikušovce"},{"lat":48.9830246,"long":18.40270424,"kod_obce":"513407","name":"Mojtín"},{"lat":49.22980118,"long":18.41015053,"kod_obce":"513466","name":"Papradno"},{"lat":49.16862106,"long":18.49931908,"kod_obce":"513474","name":"Plevník - Drienové"},{"lat":49.08545303,"long":18.51999474,"kod_obce":"513563","name":"Prečín"},{"lat":49.02646255,"long":18.2108345,"kod_obce":"513598","name":"Pruské"},{"lat":49.01651001,"long":18.47456169,"kod_obce":"513601","name":"Pružina"},{"lat":49.19424438,"long":18.44095993,"kod_obce":"513687","name":"Stupné"},{"lat":49.04082108,"long":18.21712303,"kod_obce":"513725","name":"Tuchyňa"},{"lat":49.16487885,"long":18.39917374,"kod_obce":"513741","name":"Udiča"},{"lat":49.07055283,"long":18.36370659,"kod_obce":"513776","name":"Visolaje"},{"lat":49.1301384,"long":18.56292915,"kod_obce":"513784","name":"Vrchteplá"},{"lat":48.45597458,"long":21.68234253,"kod_obce":"513792","name":"Malá Tŕňa"},{"lat":48.46773529,"long":21.6785965,"kod_obce":"513806","name":"Veľká Tŕňa"},{"lat":49.17827988,"long":18.25086594,"kod_obce":"513814","name":"Záriečie"},{"lat":49.13586044,"long":18.51751518,"kod_obce":"513822","name":"Záskalie"},{"lat":48.3840065,"long":21.72441292,"kod_obce":"513831","name":"Klin nad Bodrogom"},{"lat":48.56898117,"long":21.65779877,"kod_obce":"513849","name":"Stanča"},{"lat":48.54481506,"long":22.12272453,"kod_obce":"513857","name":"Budince"},{"lat":48.9500618,"long":18.43196678,"kod_obce":"513865","name":"Zliechov"},{"lat":48.65951157,"long":18.51399422,"kod_obce":"513911","name":"Bystričany"},{"lat":48.71268082,"long":18.64406967,"kod_obce":"513920","name":"Cigeľ"},{"lat":48.88267899,"long":18.48655319,"kod_obce":"513938","name":"Čavoj"},{"lat":48.64167023,"long":18.48490334,"kod_obce":"513946","name":"Čereňany"},{"lat":48.74689865,"long":18.49487114,"kod_obce":"513954","name":"Diviacka Nová Ves"},{"lat":48.76661682,"long":18.4923954,"kod_obce":"513962","name":"Diviaky nad Nitricou"},{"lat":48.8098526,"long":18.51313972,"kod_obce":"513971","name":"Dlžín"},{"lat":48.70402527,"long":18.39613152,"kod_obce":"513989","name":"Dolné Vestenice"},{"lat":48.60850906,"long":18.48906136,"kod_obce":"514004","name":"Horná Ves"},{"lat":48.71082306,"long":18.42984962,"kod_obce":"514012","name":"Horné Vestenice"},{"lat":48.77494049,"long":18.72607803,"kod_obce":"514021","name":"Chrenovec - Brusno"},{"lat":48.89028168,"long":18.54976845,"kod_obce":"514039","name":"Chvojnica"},{"lat":48.67138672,"long":18.5483036,"kod_obce":"514063","name":"Kamenec pod Vtáčnikom"},{"lat":48.81722641,"long":18.58860779,"kod_obce":"514071","name":"Kanianka"},{"lat":48.91247177,"long":18.65831184,"kod_obce":"514080","name":"Kľačno"},{"lat":48.77137375,"long":18.54310226,"kod_obce":"514098","name":"Kocurany"},{"lat":48.80709839,"long":18.49003792,"kod_obce":"514101","name":"Kostolná Ves"},{"lat":48.74563217,"long":18.5788784,"kod_obce":"514110","name":"Koš"},{"lat":48.81872559,"long":18.62112045,"kod_obce":"514128","name":"Lazany"},{"lat":48.69693756,"long":18.59563065,"kod_obce":"514136","name":"Lehota pod Vtáčnikom"},{"lat":48.82476807,"long":18.47953224,"kod_obce":"514144","name":"Liešťany"},{"lat":48.80293655,"long":18.7045536,"kod_obce":"514179","name":"Malá Čausa"},{"lat":48.85382462,"long":18.61587715,"kod_obce":"514187","name":"Malinová"},{"lat":48.81806946,"long":18.64320755,"kod_obce":"514209","name":"Nedožery - Brezany"},{"lat":48.84074783,"long":18.48424339,"kod_obce":"514217","name":"Nevidzany"},{"lat":48.87133408,"long":18.63411903,"kod_obce":"514225","name":"Nitrianske Pravno"},{"lat":48.79627991,"long":18.47819328,"kod_obce":"514233","name":"Nitrianske Rudno"},{"lat":48.73041916,"long":18.4700985,"kod_obce":"514241","name":"Nitrianske Sučany"},{"lat":48.70465088,"long":18.44781876,"kod_obce":"514250","name":"Nitrica"},{"lat":48.76379395,"long":18.57192421,"kod_obce":"514284","name":"Opatovce nad Nitrou"},{"lat":48.63030624,"long":18.46886063,"kod_obce":"514292","name":"Oslany"},{"lat":48.6852684,"long":18.63124657,"kod_obce":"514306","name":"Podhradie"},{"lat":48.84525299,"long":18.64023972,"kod_obce":"514314","name":"Poluvsie"},{"lat":48.83378983,"long":18.58828735,"kod_obce":"514322","name":"Poruba"},{"lat":48.85732269,"long":18.64992142,"kod_obce":"514331","name":"Pravenec"},{"lat":48.58530426,"long":18.50009918,"kod_obce":"514349","name":"Radobica"},{"lat":48.76942825,"long":18.75537109,"kod_obce":"514357","name":"Ráztočno"},{"lat":48.80578232,"long":18.46319199,"kod_obce":"514365","name":"Rudnianska Lehota"},{"lat":48.73178482,"long":18.6212101,"kod_obce":"514373","name":"Sebedražie"},{"lat":48.82041931,"long":18.50306511,"kod_obce":"514381","name":"Seč"},{"lat":48.80142212,"long":18.53680038,"kod_obce":"514390","name":"Šutovce"},{"lat":48.86849213,"long":18.47744942,"kod_obce":"514403","name":"Temeš"},{"lat":48.89396286,"long":18.6164093,"kod_obce":"514411","name":"Tužina"},{"lat":48.88663864,"long":18.39656639,"kod_obce":"514420","name":"Valaská Belá"},{"lat":48.77753067,"long":18.69444847,"kod_obce":"514438","name":"Veľká Čausa"},{"lat":48.6848793,"long":18.52481842,"kod_obce":"514454","name":"Zemianske Kostoľany"},{"lat":48.51229477,"long":20.00530624,"kod_obce":"514489","name":"Babinec"},{"lat":48.37302017,"long":20.22983932,"kod_obce":"514501","name":"Barca"},{"lat":48.38049698,"long":20.16638374,"kod_obce":"514519","name":"Bátka"},{"lat":48.34059143,"long":20.10754204,"kod_obce":"514535","name":"Belín"},{"lat":48.27359772,"long":19.95321846,"kod_obce":"514543","name":"Blhovce"},{"lat":48.31232834,"long":20.15045738,"kod_obce":"514551","name":"Bottovo"},{"lat":48.48783493,"long":20.341362,"kod_obce":"514578","name":"Bretka"},{"lat":48.48477173,"long":20.09116554,"kod_obce":"514586","name":"Budikovany"},{"lat":48.34003448,"long":20.22555351,"kod_obce":"514594","name":"Cakov"},{"lat":48.40799332,"long":19.98685837,"kod_obce":"514608","name":"Čerenčany"},{"lat":48.61666489,"long":19.85000038,"kod_obce":"514616","name":"Čierny Potok"},{"lat":48.31303024,"long":20.2795105,"kod_obce":"514624","name":"Číž"},{"lat":48.35113907,"long":19.90075302,"kod_obce":"514632","name":"Dolné Zahorany"},{"lat":48.43711853,"long":20.06643677,"kod_obce":"514641","name":"Dražice"},{"lat":48.48127747,"long":20.07188797,"kod_obce":"514659","name":"Drienčany"},{"lat":48.26293945,"long":20.11553955,"kod_obce":"514667","name":"Drňa"},{"lat":48.54262161,"long":20.23707962,"kod_obce":"514675","name":"Držkovce"},{"lat":48.19064713,"long":20.00157928,"kod_obce":"514683","name":"Dubno"},{"lat":48.2935524,"long":20.15395355,"kod_obce":"514691","name":"Dubovec"},{"lat":48.39661026,"long":20.25366592,"kod_obce":"514713","name":"Figa"},{"lat":48.44943619,"long":20.31563377,"kod_obce":"514721","name":"Gemer"},{"lat":48.31737137,"long":19.99341011,"kod_obce":"514730","name":"Gemerček"},{"lat":48.47340393,"long":20.35113144,"kod_obce":"514748","name":"Gemerská Panica"},{"lat":48.48079681,"long":20.27205467,"kod_obce":"514756","name":"Gemerská Ves"},{"lat":48.24799347,"long":20.03663445,"kod_obce":"514764","name":"Gemerské Dechtáre"},